trip_id,user_id,name_user,rut_user,vehicle_id,booking_time,start_time,end_time,status_id,travel_dist,membership_id,price_amount,price_tax,price_total,start_lat,start_lon,end_lat,end_lon
0,476,Rebecca Charles,59959528,95,2022-03-07 22:48:16,2022-03-07 22:55:16,2022-03-08 18:28:16,4,6165688,1,11122,2113.18,13235,-33.87863782553843,-71.02788287609009,-34.123515291242924,-71.35636867720585
1,427,Alex Reeves,90517421,83,2022-07-08 19:36:54,2022-07-08 19:43:54,2022-07-09 09:52:54,3,7020217,1,2489,472.91,2961,-34.09897118175137,-71.27536674906213,-33.856469721456676,-71.1704194644305
2,987,Mr. Jeremy Torres,36729496,61,2022-05-25 05:04:42,2022-05-25 05:14:42,2022-05-25 08:16:42,3,803100,3,1656,314.64,1970,-33.58152939751057,-70.53896558274045,-33.930672296060315,-70.5070203176805
3,343,Amanda Willis,70770856,12,2022-05-12 03:53:27,2022-05-12 04:02:27,2022-05-12 04:40:27,1,24,3,28272,5371.68,33643,-34.34151202792005,-71.41119096154348,-34.029063005724346,-71.22253987691592
4,74,Brenda Carter,23148564,92,2022-10-18 02:42:03,2022-10-18 02:55:03,2022-10-19 00:57:03,4,1049859,3,2765,525.35,3290,-33.51011760852834,-70.5458842471245,-33.843074452269505,-70.56703736236094
5,224,Lee Alvarez,49014775,73,2022-03-05 07:33:27,2022-03-05 07:45:27,2022-03-05 15:12:27,3,641140296,1,12266,2330.54,14596,-34.055208705023574,-71.41349045837184,-33.98374037622781,-70.5803577370335
6,743,Amanda Torres,92935341,15,2022-11-27 22:22:07,2022-11-27 22:35:07,2022-11-28 01:04:07,2,9576,1,6991,1328.29,8319,-33.94671298442514,-70.9250487355425,-33.50941003277848,-71.08011530035107
7,273,Alexander Hernandez,91914053,38,2022-10-10 19:31:46,2022-10-10 19:39:46,2022-10-11 19:23:46,6,65,3,15290,2905.1,18195,-33.60548212428951,-70.52751281535046,-33.709799917274545,-70.80357518908741
8,526,Anne Adams,84837657,63,2022-04-07 11:20:26,2022-04-07 11:23:26,2022-04-07 17:38:26,6,38,1,15439,2933.41,18372,-34.35748556049401,-71.25773788098427,-33.53767288414586,-71.01423147544149
9,996,Craig Baxter,92751894,66,2022-06-02 19:01:58,2022-06-02 19:11:58,2022-06-03 02:21:58,1,717825,2,3421,649.99,4070,-34.1729003947408,-71.02015106872742,-34.471075947065955,-71.28241747932503
10,854,Ryan Hernandez,23668356,38,2022-05-06 21:11:06,2022-05-06 21:24:06,2022-05-07 17:17:06,1,83,2,17263,3279.9700000000003,20542,-34.17266924541634,-71.18703460762617,-33.774932226343125,-70.57572102521411
11,76,Laura King,83813304,95,2022-09-27 19:20:25,2022-09-27 19:29:25,2022-09-28 04:32:25,5,69166733,3,9222,1752.18,10974,-33.81717502035219,-71.35058177558513,-33.86238209587044,-71.45280377780031
12,81,James Alexander,30762905,46,2022-12-30 00:33:38,2022-12-30 00:45:38,2022-12-30 06:34:38,2,486417,2,10378,1971.82,12349,-33.955430535443796,-70.62171988294295,-34.3758004413724,-70.80646370293996
13,370,Kimberly Kelly,64085735,55,2022-05-21 12:14:27,2022-05-21 12:23:27,2022-05-22 07:25:27,4,73611525,1,15353,2917.07,18270,-33.90536322416921,-71.40360479894994,-33.62285970090886,-70.74170718952006
14,496,Aaron Pearson,97408753,1,2022-04-23 07:46:20,2022-04-23 07:53:20,2022-04-24 04:03:20,3,3665,1,27846,5290.74,33136,-34.39950529794218,-71.09831151208031,-33.93165463501135,-70.76128889498662
15,491,Stephen Wood,23195978,18,2022-07-18 09:39:28,2022-07-18 09:49:28,2022-07-18 23:44:28,5,7667,3,27449,5215.31,32664,-33.59955607023645,-70.81879062917372,-34.341456891178844,-71.07397186381122
16,665,Mr. Ralph Johnson,48357152,63,2022-05-16 04:28:27,2022-05-16 04:37:27,2022-05-17 03:20:27,3,6335,1,28549,5424.31,33973,-34.211833758342735,-71.46712331637387,-34.11637320152683,-71.00470329478749
17,453,April Daniel,79344846,96,2022-06-23 11:01:07,2022-06-23 11:09:07,2022-06-23 22:38:07,2,0,2,7444,1414.3600000000001,8858,-33.59353528383998,-71.49604753637023,-33.79083394508272,-71.03696462589555
18,886,William Mills,93926887,18,2022-04-24 10:16:07,2022-04-24 10:20:07,2022-04-24 22:35:07,2,165,1,4752,902.88,5654,-34.37088917103838,-70.6131264952066,-34.332259426458606,-71.00629059144563
19,158,Dorothy Ritter,42243239,15,2022-08-09 04:53:22,2022-08-09 05:06:22,2022-08-10 00:51:22,4,80088,1,11676,2218.44,13894,-33.82154569995669,-70.67105403241504,-33.92712100396788,-70.81699421582296
20,504,Caroline Hurst,57794984,47,2022-12-21 04:54:40,2022-12-21 05:00:40,2022-12-21 12:54:40,6,59120975,1,16143,3067.17,19210,-33.898440442586676,-70.8214395400058,-34.08017286061568,-70.58320530739442
21,230,Heather Harmon,85516496,98,2022-07-13 05:46:38,2022-07-13 05:59:38,2022-07-13 08:40:38,2,173,2,15359,2918.21,18277,-34.023875645505264,-70.71985203998074,-33.849082078835764,-71.004286085212
22,644,Shannon Carney,22516340,72,2022-12-14 15:51:17,2022-12-14 16:02:17,2022-12-14 19:10:17,5,9,2,2267,430.73,2697,-34.296272212670864,-70.59524535229389,-33.77315510772843,-71.30195190035468
23,526,Anne Adams,84837657,49,2022-12-10 00:33:45,2022-12-10 00:44:45,2022-12-10 17:18:45,2,6,2,13624,2588.56,16212,-34.11132692316045,-70.72463009293878,-33.65190742187899,-70.67477413015635
24,241,Jerry Frank,79261782,13,2022-06-27 02:12:23,2022-06-27 02:26:23,2022-06-27 20:25:23,1,45374,1,4843,920.17,5763,-34.191123773439834,-71.33088502534383,-34.38794102157388,-71.13674145745959
25,845,Lynn Robinson,66561250,33,2022-09-21 15:26:45,2022-09-21 15:33:45,2022-09-21 22:38:45,5,889,3,19151,3638.69,22789,-33.6800391288467,-70.67255904195673,-33.718827966434596,-71.13056614885998
26,715,Terrence Gonzales,87476865,63,2022-08-06 10:06:09,2022-08-06 10:15:09,2022-08-07 09:44:09,4,173,3,10921,2074.9900000000002,12995,-34.189590717463375,-71.009154198349,-34.273224395034234,-71.0769162976442
27,535,Patrick Holland,91581614,61,2022-06-03 22:46:02,2022-06-03 22:54:02,2022-06-03 23:10:02,1,476978,1,20579,3910.01,24489,-34.180568780289484,-71.41206943959128,-33.77256492993691,-70.79020397889741
28,590,Erin Mccarthy,38708964,62,2022-08-27 03:28:41,2022-08-27 03:29:41,2022-08-27 16:22:41,4,71575000,1,27723,5267.37,32990,-33.83361220256694,-70.74145307350851,-33.90801753543706,-71.23374245271275
29,351,Steven Anderson,42629423,27,2022-11-25 17:53:18,2022-11-25 18:08:18,2022-11-25 19:41:18,6,236239774,3,4168,791.92,4959,-33.85887908224044,-71.24491057503118,-34.16959483156393,-70.9277083288393
30,53,Tiffany Harmon,32221566,70,2022-07-08 22:21:10,2022-07-08 22:35:10,2022-07-08 22:50:10,1,6265254,2,28810,5473.9,34283,-33.944077083550546,-70.86022180961669,-34.34443579495324,-71.37548722736726
31,181,John Orr,38690557,18,2022-08-30 12:05:51,2022-08-30 12:11:51,2022-08-30 22:01:51,2,1551,1,14586,2771.34,17357,-33.959585243252896,-71.1018156426236,-33.90471817330389,-70.77864185992993
32,649,Victoria Conway,87596799,19,2022-12-24 19:56:43,2022-12-24 19:58:43,2022-12-25 19:46:43,3,504,3,16445,3124.55,19569,-33.660915643011016,-70.6001615483234,-34.05371088045903,-71.43688040906062
33,786,Elizabeth Wright,31895233,83,2022-02-13 17:10:52,2022-02-13 17:16:52,2022-02-14 09:03:52,4,8423922,2,11718,2226.42,13944,-34.11389250214954,-71.32894523764186,-34.49956071426223,-71.43995741081902
34,740,Christopher Smith,13023148,5,2022-04-24 06:58:53,2022-04-24 07:07:53,2022-04-25 01:56:53,5,41,3,17092,3247.48,20339,-34.32732992942838,-70.8315570048673,-34.09754909746377,-70.96957829239396
35,233,Kayla Stevenson,54252946,73,2022-06-15 08:15:31,2022-06-15 08:18:31,2022-06-15 09:35:31,6,950322,2,4998,949.62,5947,-33.9260801933277,-70.97995233879176,-34.08323248447586,-71.16613025626272
36,67,Aaron Young,50702200,88,2022-11-12 14:58:15,2022-11-12 15:10:15,2022-11-13 09:48:15,3,391,2,29885,5678.15,35563,-33.68076744696867,-71.18852923229473,-33.86633324084034,-71.29220317098434
37,162,Joshua Salas,12446449,30,2022-07-26 04:44:32,2022-07-26 04:54:32,2022-07-26 19:07:32,6,60832085,3,16591,3152.29,19743,-33.52437051703788,-70.70226660655119,-33.7409034636361,-71.28233841891378
38,919,Cynthia Stevens,90354533,18,2022-01-16 00:52:12,2022-01-16 01:01:12,2022-01-16 22:13:12,4,603577188,3,4887,928.53,5815,-33.97147059282319,-70.66301546622574,-34.32903816353791,-70.74922528436018
39,116,Thomas Perez,25826274,69,2022-09-18 15:49:40,2022-09-18 15:59:40,2022-09-19 14:15:40,6,61560097,2,24023,4564.37,28587,-34.3575970571631,-71.39871894766989,-34.12050842156199,-70.68622605715608
40,229,Mr. Gavin Whitehead,90199014,73,2022-03-03 03:05:40,2022-03-03 03:13:40,2022-03-03 10:00:40,6,796,1,10147,1927.93,12074,-33.69782995153228,-70.87270061575568,-34.46723031223326,-70.53400562953112
41,545,Danielle Novak,80146181,18,2022-09-10 03:45:59,2022-09-10 03:48:59,2022-09-10 17:02:59,2,15,3,27105,5149.95,32254,-33.674335845051786,-70.80521813015947,-34.18129622805786,-71.06672577007987
42,945,Tracey Perkins,49929670,19,2022-12-17 20:22:35,2022-12-17 20:23:35,2022-12-18 12:15:35,2,20633,3,22511,4277.09,26788,-34.021696986053826,-70.74324005591072,-34.16955697887383,-70.65179857489684
43,125,John Meyer,11433618,40,2022-04-25 02:55:38,2022-04-25 03:08:38,2022-04-25 12:46:38,5,46894,2,26388,5013.72,31401,-34.441783224099595,-70.95520832895161,-33.53803582110876,-71.40923795056457
44,479,Heather Cox,70183001,24,2022-10-11 23:07:21,2022-10-11 23:18:21,2022-10-12 13:22:21,1,83559,2,5917,1124.23,7041,-34.292110911261595,-71.1438821273981,-33.96625152556045,-71.24110598372955
45,803,David Hamilton,18830637,59,2022-01-18 04:20:28,2022-01-18 04:24:28,2022-01-19 03:39:28,4,293932414,3,6301,1197.19,7498,-34.22924957036192,-70.78790581734083,-33.694216862943506,-70.96307338736251
46,661,Rebecca Simmons DVM,49300221,48,2022-09-03 13:07:20,2022-09-03 13:08:20,2022-09-04 05:29:20,1,9448,2,2838,539.22,3377,-33.56139900205898,-70.83507947398152,-33.53217423067804,-71.07773650042664
47,210,Aaron Maddox,52557886,60,2022-09-04 07:14:41,2022-09-04 07:25:41,2022-09-05 07:00:41,5,683606,1,10692,2031.48,12723,-33.53216252270205,-70.91376068253528,-33.76445283016053,-70.98039191872985
48,854,Ryan Hernandez,23668356,46,2022-09-13 21:24:34,2022-09-13 21:28:34,2022-09-14 07:05:34,2,6335631,2,2947,559.93,3506,-34.27406986749664,-70.50024407855418,-33.72210580117005,-70.56750390371052
49,995,Noah Patterson,64913780,38,2022-06-20 03:37:24,2022-06-20 03:39:24,2022-06-20 11:22:24,1,9,1,21649,4113.31,25762,-33.58962501771813,-71.44128895703906,-34.44906881215702,-70.73287716785319
50,647,Thomas Cook Jr.,77235554,87,2022-03-13 09:40:25,2022-03-13 09:44:25,2022-03-14 04:14:25,2,708,3,9711,1845.09,11556,-33.8159094793753,-71.34035482275281,-34.175326644847175,-71.4615438940177
51,256,Patrick Hanson,16713451,21,2022-12-28 04:33:00,2022-12-28 04:38:00,2022-12-29 00:48:00,6,9,1,7940,1508.6,9448,-34.16286096131001,-70.63304270054861,-33.6342334322383,-71.15278300677292
52,198,Kristi Hubbard PhD,81186437,73,2022-05-02 09:41:00,2022-05-02 09:48:00,2022-05-02 19:32:00,5,14,3,21232,4034.08,25266,-34.107482167109886,-70.52925792381798,-34.45490932950256,-70.86315930418267
53,230,Heather Harmon,85516496,80,2022-03-13 19:43:36,2022-03-13 19:54:36,2022-03-13 21:26:36,4,93147,3,7254,1378.26,8632,-34.310836142923876,-70.76756174504217,-33.9778522545548,-70.6800846812626
54,408,Faith Lewis,97435479,79,2022-01-15 19:08:50,2022-01-15 19:19:50,2022-01-16 14:51:50,5,191,3,16628,3159.32,19787,-33.53805273011514,-70.76146155008146,-34.19869191191454,-71.39275815924962
55,996,Craig Baxter,92751894,62,2022-03-17 11:07:34,2022-03-17 11:16:34,2022-03-18 04:54:34,6,8216656,2,10659,2025.21,12684,-33.78502949809067,-71.2719734711139,-34.189756242787844,-70.91759108184651
56,751,Alexander Williamson,36494619,98,2022-08-15 11:17:20,2022-08-15 11:20:20,2022-08-16 08:08:20,1,2046,1,12317,2340.23,14657,-34.271347515039984,-70.88452811970639,-33.561166051488215,-71.33739310306288
57,101,Dawn Schmitt,81933657,14,2022-11-16 16:34:29,2022-11-16 16:46:29,2022-11-17 14:39:29,4,26771489,1,5242,995.98,6237,-34.02473183806498,-70.75305560541108,-34.13924317759486,-70.69158567133661
58,619,Isaiah Davidson,56661124,53,2022-02-25 08:43:28,2022-02-25 08:51:28,2022-02-26 02:03:28,1,1352,1,21245,4036.55,25281,-34.16059308043524,-70.55133994112869,-33.940626577906094,-70.94887320388384
59,691,Daniel Martin,39099502,45,2022-12-16 03:08:36,2022-12-16 03:14:36,2022-12-16 22:34:36,1,32013,2,1197,227.43,1424,-34.42292994442235,-70.68969754007045,-33.55538537634026,-71.30267606732944
60,96,Ellen Thomas,44074735,32,2022-06-05 20:59:33,2022-06-05 21:04:33,2022-06-06 10:05:33,4,65322932,3,1893,359.67,2252,-34.05067927892885,-71.17509625881564,-34.32212403424119,-71.4586026500451
61,975,Alicia Burgess,51594756,45,2022-11-13 14:15:40,2022-11-13 14:21:40,2022-11-14 04:49:40,4,27695672,2,12641,2401.79,15042,-33.86946076823967,-71.2698376581975,-33.60664136875678,-70.94888226333843
62,556,James Thompson,99643766,6,2022-04-10 09:21:49,2022-04-10 09:35:49,2022-04-11 05:42:49,2,27,1,10748,2042.1200000000001,12790,-33.83502715218451,-70.90943063956202,-33.617092558958966,-71.48192199803957
63,386,Melissa Chandler,76298817,94,2022-03-18 14:02:29,2022-03-18 14:11:29,2022-03-19 01:46:29,3,441618408,1,12324,2341.56,14665,-33.5815455281637,-71.05372066381274,-34.06184080360579,-70.96728857785016
64,906,Nicholas Montgomery,98133898,56,2022-11-28 20:53:58,2022-11-28 20:59:58,2022-11-29 20:33:58,4,143064,3,1068,202.92000000000002,1270,-34.19553117084452,-70.85442003768411,-34.272043238491044,-70.99575963131173
65,863,Cheryl Jefferson,11287812,49,2022-11-30 23:47:48,2022-12-01 00:02:48,2022-12-01 12:03:48,1,737,3,28270,5371.3,33641,-34.022162409684505,-70.73276204187856,-34.10485032000455,-70.90848742359744
66,404,Geoffrey Thompson,21678989,14,2022-01-03 05:18:11,2022-01-03 05:30:11,2022-01-03 20:29:11,1,73647,1,15242,2895.98,18137,-34.10325525456882,-70.89058719515619,-34.23569026773057,-70.60450048021154
67,215,Marcus Hartman,59399911,61,2022-09-08 14:10:17,2022-09-08 14:24:17,2022-09-09 03:15:17,2,3392,1,22907,4352.33,27259,-34.36465037372392,-70.58044045957031,-34.16802698699434,-71.44030710326243
68,522,Mr. Michael Armstrong,61457379,27,2022-06-18 16:04:43,2022-06-18 16:19:43,2022-06-19 13:40:43,5,46103431,3,13620,2587.8,16207,-34.48498437916877,-70.68565355911464,-34.22904883628153,-71.25502943979807
69,147,Kevin Long,36028884,47,2022-05-08 04:04:53,2022-05-08 04:06:53,2022-05-08 23:51:53,4,5156495,1,8672,1647.68,10319,-33.86981096331774,-70.71306281952442,-34.29165906347427,-71.48271645177397
70,283,Christine Nelson,75102480,21,2022-10-13 13:28:52,2022-10-13 13:33:52,2022-10-13 21:44:52,1,715747,1,14595,2773.05,17368,-34.16338915920721,-71.41106070700246,-34.1748659542035,-71.16699443969343
71,595,Michaela Acosta,95995472,97,2022-08-03 14:39:49,2022-08-03 14:47:49,2022-08-04 07:01:49,1,61442225,3,22738,4320.22,27058,-33.75323817421718,-70.67583918756424,-34.488091194163864,-70.55492742119694
72,223,David Pham,95686222,95,2022-12-08 18:44:22,2022-12-08 18:51:22,2022-12-08 19:20:22,3,932,3,25178,4783.82,29961,-33.664877174774205,-70.90987640094593,-33.88416974305385,-71.37739439264364
73,275,Angela Sanchez,30752723,67,2022-07-01 13:41:03,2022-07-01 13:46:03,2022-07-02 11:20:03,1,90807,3,4731,898.89,5629,-34.20999271903888,-71.401913380142,-34.23464671304993,-71.43843929268036
74,836,Jennifer Allen,11429215,94,2022-01-25 20:03:42,2022-01-25 20:08:42,2022-01-25 22:39:42,3,645,1,29933,5687.27,35620,-34.26069332221796,-70.8803794954606,-33.94255024811351,-71.19673607062082
75,817,Ricardo Gross,51655647,26,2022-12-23 10:56:16,2022-12-23 11:10:16,2022-12-24 09:56:16,3,13,2,11798,2241.62,14039,-33.525228966134826,-70.65737331906969,-33.63340586997851,-70.75095955874593
76,911,Alec Morse,41006045,38,2022-02-01 03:59:33,2022-02-01 04:14:33,2022-02-02 01:42:33,1,90592,3,17861,3393.59,21254,-33.69707673691079,-70.9805892663322,-33.73885135425057,-71.12796529642593
77,210,Aaron Maddox,52557886,41,2022-11-30 21:02:12,2022-11-30 21:15:12,2022-12-01 01:40:12,1,62543,2,28143,5347.17,33490,-33.851325415869624,-70.85092888528553,-33.699936214916484,-70.70825733370363
78,725,Jill Martin,92235880,15,2022-04-03 03:18:42,2022-04-03 03:31:42,2022-04-03 07:35:42,6,87,1,24659,4685.21,29344,-33.54922257298406,-70.83566588876647,-33.51998443032905,-71.07113021159836
79,12,Jason Goodwin,63867624,11,2022-06-14 10:40:53,2022-06-14 10:54:53,2022-06-14 11:12:53,3,84345169,1,16702,3173.38,19875,-33.93434421159146,-70.53729806515821,-34.34298531674359,-71.26710179275655
80,993,Erika Horton,70771262,70,2022-04-21 21:18:12,2022-04-21 21:32:12,2022-04-21 23:55:12,3,5650117,1,28165,5351.35,33516,-34.07284532139674,-70.9620982887807,-34.23713601302408,-70.84418383564854
81,207,Amy Morris,60465115,98,2022-05-19 21:10:37,2022-05-19 21:16:37,2022-05-20 03:15:37,4,80,2,1322,251.18,1573,-33.71411016663225,-71.26345131879476,-33.83823629270563,-71.4949184199128
82,919,Cynthia Stevens,90354533,98,2022-09-18 06:32:06,2022-09-18 06:46:06,2022-09-18 18:42:06,4,129328,1,29547,5613.93,35160,-34.232825120489835,-71.19783561426455,-34.480235313473145,-70.71848839488908
83,636,Jeffrey Johnson,27485136,35,2022-06-19 18:35:16,2022-06-19 18:41:16,2022-06-20 09:13:16,3,26,3,4059,771.21,4830,-33.505463075714026,-70.74302807906167,-33.65185328174126,-71.44163851793878
84,569,Angela Ramirez,59630823,78,2022-06-25 07:58:11,2022-06-25 08:10:11,2022-06-26 06:52:11,1,63642,2,26987,5127.53,32114,-34.360246208194596,-70.58657277370844,-34.26931000753344,-70.9301220631186
85,415,Thomas Mcfarland,30370887,31,2022-07-08 02:34:51,2022-07-08 02:42:51,2022-07-08 22:09:51,4,1114377,3,4051,769.69,4820,-34.030204780211285,-70.6716067247106,-34.34822894298654,-70.6884373056872
86,789,Melissa Rios,72392983,57,2022-11-27 03:27:13,2022-11-27 03:35:13,2022-11-27 22:05:13,5,29363,3,12453,2366.07,14819,-33.79000100823855,-70.69961868157337,-34.030192366721785,-71.46635987401523
87,474,Ashley Robinson,96914525,57,2022-08-16 20:47:45,2022-08-16 20:48:45,2022-08-17 16:44:45,5,50,3,3058,581.02,3639,-34.43642994431348,-71.15023836917855,-34.48769130990241,-70.9574861043677
88,5,Dylan Russell,51861905,25,2022-01-14 12:27:58,2022-01-14 12:35:58,2022-01-14 17:36:58,1,53,2,19542,3712.98,23254,-34.01991603001829,-71.2642631335947,-34.46310742334369,-71.27342117052488
89,394,Joshua Johnson,82709615,4,2022-04-16 19:42:23,2022-04-16 19:47:23,2022-04-16 21:08:23,2,6,3,27259,5179.21,32438,-33.9581829125661,-70.69040703974473,-34.35373948171558,-71.47539240510135
90,976,Mr. Joe Lewis MD,49447381,13,2022-02-21 15:39:14,2022-02-21 15:45:14,2022-02-22 01:40:14,6,45917185,2,24890,4729.1,29619,-33.51821553458496,-71.1384679366288,-33.80385722419777,-71.3765298478329
91,274,Kimberly Myers,23972972,29,2022-11-28 00:50:25,2022-11-28 01:01:25,2022-11-28 21:06:25,1,996,3,8685,1650.15,10335,-33.83270584913623,-71.49035952181477,-33.666283604306045,-70.57656064542408
92,625,Melvin Roman,57232389,25,2022-07-18 01:25:28,2022-07-18 01:35:28,2022-07-18 07:12:28,6,74160809,1,20381,3872.39,24253,-34.07477289215742,-71.13400496328016,-34.33188898352886,-70.54195110822644
93,356,Michelle Lee,85607742,26,2022-05-13 07:57:54,2022-05-13 07:58:54,2022-05-13 22:03:54,2,88319959,1,1297,246.43,1543,-34.13365786319777,-70.50421086514972,-33.93727219338669,-70.99448412051882
94,162,Joshua Salas,12446449,25,2022-05-30 05:19:36,2022-05-30 05:26:36,2022-05-30 15:21:36,4,991,2,7842,1489.98,9331,-34.22223161914735,-70.89920132521313,-33.603258632186616,-70.85780849444623
95,319,Megan Warner,15269668,37,2022-03-02 09:44:46,2022-03-02 09:50:46,2022-03-02 13:34:46,3,566402622,3,11388,2163.72,13551,-33.64225056134763,-70.65547845011852,-33.569600686168044,-70.89725545907535
96,567,Cesar Vazquez,18108525,68,2022-09-20 03:04:27,2022-09-20 03:05:27,2022-09-20 07:18:27,3,779645044,1,16884,3207.96,20091,-34.130078388010624,-71.22666297290138,-33.585670297532154,-71.30518677424978
97,815,Gary Briggs,33219739,37,2022-08-06 15:38:44,2022-08-06 15:49:44,2022-08-06 20:35:44,5,83,3,29711,5645.09,35356,-33.60096145703159,-70.83971922815452,-34.041812620963924,-71.32668889057274
98,790,Shelby Brown,72263688,16,2022-07-04 05:58:38,2022-07-04 06:13:38,2022-07-04 22:54:38,4,2103465,2,29928,5686.32,35614,-34.3173763065509,-70.7589784477655,-34.354499827769956,-71.06227008215515
99,977,Adam Thomas,44171745,27,2022-10-19 23:26:42,2022-10-19 23:27:42,2022-10-20 06:09:42,1,199872,3,10791,2050.29,12841,-33.69371181118381,-71.19609892897172,-34.40430436946865,-70.51032504224727
100,95,Brenda Moore,16713800,57,2022-07-09 01:45:24,2022-07-09 01:58:24,2022-07-09 02:57:24,2,3,2,27076,5144.4400000000005,32220,-34.10227041095513,-71.3809648474639,-34.02847293119638,-70.94765354685737
101,146,Megan Pittman,66138314,27,2022-05-18 02:20:52,2022-05-18 02:32:52,2022-05-18 12:06:52,2,36900204,2,5967,1133.73,7100,-34.44009862627455,-71.09693389760389,-33.85650070874263,-71.47106271635178
102,793,Chad Beck,97142162,10,2022-03-13 02:48:02,2022-03-13 02:55:02,2022-03-13 11:01:02,6,7953970,2,4838,919.22,5757,-34.04004938717019,-71.17744919769005,-33.51370464002528,-70.60745254557676
103,422,Mark Medina,33143662,67,2022-01-25 14:46:52,2022-01-25 14:56:52,2022-01-25 20:00:52,6,92436824,3,3075,584.25,3659,-33.983139636015295,-71.46243580355898,-33.88415574723138,-70.6962967898066
104,512,Jenna Williams,30854961,41,2022-08-18 07:20:28,2022-08-18 07:25:28,2022-08-18 11:07:28,1,28961,3,26661,5065.59,31726,-33.99145320179815,-71.23389833351422,-34.02319946326322,-70.58183901051055
105,590,Erin Mccarthy,38708964,75,2022-06-30 19:49:03,2022-06-30 20:04:03,2022-07-01 01:28:03,5,659,1,26204,4978.76,31182,-33.537285174170826,-71.00996447585608,-33.903129934187746,-71.1190576841538
106,847,Leslie Nunez,91387969,74,2022-01-04 21:47:12,2022-01-04 22:00:12,2022-01-05 19:32:12,5,898296522,2,28477,5410.63,33887,-33.71377806959725,-70.52582768765862,-34.389529533751805,-70.51794537609311
107,313,Tiffany Pierce,28109190,17,2022-08-12 15:31:42,2022-08-12 15:42:42,2022-08-12 18:14:42,5,6,2,26872,5105.68,31977,-33.759136596982955,-71.45024389651157,-34.44056188637907,-70.73813886736738
108,956,Holly Stokes,35255661,19,2022-11-27 11:50:22,2022-11-27 12:01:22,2022-11-28 01:34:22,5,872,3,1356,257.64,1613,-34.363920027300296,-71.3334142733833,-33.964946801523375,-70.56689342695795
109,177,Briana Burns,44156973,76,2022-06-07 22:20:57,2022-06-07 22:24:57,2022-06-07 23:06:57,1,97021,1,16350,3106.5,19456,-33.622770067839696,-70.5072168311295,-34.17719571392447,-70.55477616068168
110,681,Melissa Jimenez,79409607,23,2022-02-18 05:44:56,2022-02-18 05:52:56,2022-02-18 12:09:56,4,3683,2,18031,3425.89,21456,-34.22423515959032,-71.48044120980732,-34.16303262617072,-71.31977706432109
111,22,Maureen Sanchez,39962692,4,2022-09-26 10:45:23,2022-09-26 10:56:23,2022-09-26 16:35:23,6,6,1,18596,3533.2400000000002,22129,-33.99718076796388,-71.30014036277224,-34.355901730220545,-71.18647792191548
112,940,Savannah Morgan,42088549,83,2022-08-10 22:47:20,2022-08-10 22:48:20,2022-08-11 11:07:20,5,829245366,2,14222,2702.18,16924,-33.61059913398003,-71.1896816832436,-34.20666685570098,-70.76778116446539
113,475,Michelle Leach,84302851,48,2022-05-28 19:41:45,2022-05-28 19:48:45,2022-05-28 20:24:45,6,6804653,3,15535,2951.65,18486,-34.2724270582698,-70.594310228898,-33.92400401231384,-70.94504731901182
114,656,Linda Nielsen,24395793,56,2022-08-24 21:56:03,2022-08-24 22:07:03,2022-08-25 17:12:03,3,0,3,27317,5190.2300000000005,32507,-34.03122972463878,-71.47026539848058,-33.83645103140566,-70.72295905498667
115,845,Lynn Robinson,66561250,58,2022-01-18 07:42:12,2022-01-18 07:57:12,2022-01-18 12:22:12,5,408104,3,4859,923.21,5782,-33.85622595114676,-70.74449461597813,-34.03678223978781,-71.41449943897801
116,597,David Ayers,85115286,12,2022-11-16 14:57:24,2022-11-16 15:00:24,2022-11-17 06:58:24,6,73,2,14270,2711.3,16981,-34.294983142507014,-71.20834599735944,-33.63831669549456,-70.92758766535793
117,609,Laura Andrews,28601708,11,2022-01-09 21:52:56,2022-01-09 22:07:56,2022-01-10 17:02:56,1,22481,3,25419,4829.61,30248,-33.55130227731576,-70.74063902542788,-33.52288458653659,-70.82435479875431
118,387,Charles Lawson,12310824,47,2022-10-28 05:13:26,2022-10-28 05:19:26,2022-10-29 02:39:26,6,3,2,17916,3404.04,21320,-34.44876446056226,-70.56652379864397,-34.17674018176142,-70.75370258652515
119,272,Gregory Donovan,19184424,43,2022-02-17 05:54:51,2022-02-17 05:57:51,2022-02-17 13:34:51,2,809887,2,4515,857.85,5372,-33.70479764917153,-71.17138513159676,-33.88325564354947,-70.59065081245672
120,673,Amanda Jacobs,65836198,69,2022-11-10 00:59:07,2022-11-10 01:06:07,2022-11-10 04:36:07,4,58203569,2,5903,1121.57,7024,-33.94469054702195,-70.51798820606264,-33.95363693872784,-70.93833151724311
121,309,Jason Tapia,99560293,31,2022-04-10 18:52:42,2022-04-10 19:06:42,2022-04-10 21:22:42,5,72478,2,4702,893.38,5595,-34.307049397545,-71.42531811048026,-33.5350803222542,-70.68547525133874
122,338,Cheryl Gutierrez,74920770,72,2022-12-20 03:26:00,2022-12-20 03:31:00,2022-12-20 16:35:00,2,635060,3,4517,858.23,5375,-33.77176763449306,-71.43869461358673,-33.99475377101363,-71.44381821802587
123,579,Brittany Williams,38557112,1,2022-05-23 12:55:13,2022-05-23 13:00:13,2022-05-23 21:00:13,5,8820538,3,5766,1095.54,6861,-34.318615300002406,-70.8119493505371,-33.91728467553553,-70.65146793877983
124,129,Linda Galvan,59549800,70,2022-12-05 06:46:01,2022-12-05 07:01:01,2022-12-06 03:26:01,2,8346,2,14469,2749.11,17218,-34.0452236375337,-70.54421119118527,-33.88454936930279,-71.3453501295963
125,398,Stephen Hinton,47262038,53,2022-04-06 14:55:19,2022-04-06 15:00:19,2022-04-07 11:47:19,6,85,3,20300,3857.0,24157,-34.188695860022,-71.1875791040476,-34.30584238473321,-71.12540377892307
126,986,Andrew Carter,12341744,96,2022-09-26 02:44:05,2022-09-26 02:57:05,2022-09-26 07:18:05,4,493272466,3,28925,5495.75,34420,-34.08731264836124,-70.78462047804439,-33.71249372516603,-71.19533494326416
127,662,Tammy Hampton,21168428,67,2022-05-25 05:53:08,2022-05-25 06:02:08,2022-05-25 11:21:08,2,677,2,23255,4418.45,27673,-34.06474749174203,-70.61442229999474,-34.01612622318281,-71.23746685491135
128,669,Jeffrey Johnson,67136605,0,2022-12-04 06:25:17,2022-12-04 06:33:17,2022-12-04 13:42:17,3,2936,2,27424,5210.56,32634,-33.82388308775947,-70.90233272012505,-33.9696837116431,-70.79316665901719
129,491,Stephen Wood,23195978,24,2022-04-02 08:53:33,2022-04-02 08:54:33,2022-04-03 02:19:33,3,26871,3,7756,1473.64,9229,-33.641198227362985,-70.50000522240748,-34.09590380723697,-70.63602469896017
130,64,William Woods,17277567,29,2022-10-20 14:24:54,2022-10-20 14:33:54,2022-10-21 02:06:54,2,654010925,1,10734,2039.46,12773,-34.20882881498927,-71.24687187817598,-33.846725475857724,-71.33245488770125
131,902,Brian Carter,67763224,23,2022-11-25 03:08:04,2022-11-25 03:17:04,2022-11-25 17:06:04,6,6,2,6447,1224.93,7671,-34.45995580948889,-71.15052418544569,-34.374897858793574,-70.60234131417477
132,588,Keith Tyler,59895543,1,2022-02-10 13:26:23,2022-02-10 13:27:23,2022-02-10 18:45:23,5,6,1,13481,2561.39,16042,-34.180940042250526,-70.59938145214295,-33.91496582745647,-71.02263620572171
133,870,Amanda Martin,85878914,84,2022-03-21 23:44:07,2022-03-21 23:52:07,2022-03-22 15:03:07,4,45002,2,28403,5396.57,33799,-34.39645628675057,-71.4418331225033,-34.18506804817533,-71.02327303791023
134,944,Steven Allen,77510564,59,2022-05-07 07:50:43,2022-05-07 07:52:43,2022-05-07 20:06:43,1,3676150,3,29251,5557.6900000000005,34808,-34.47186479454594,-71.47408416091655,-33.996097881687604,-71.00729471513951
135,92,Anthony Schroeder,96038326,66,2022-04-22 12:31:43,2022-04-22 12:40:43,2022-04-22 17:31:43,6,650,2,9545,1813.55,11358,-33.64444428820207,-70.51282379809616,-33.7916610251586,-70.65222590037105
136,182,Leah Mitchell,85808889,46,2022-07-27 00:38:04,2022-07-27 00:43:04,2022-07-27 12:15:04,2,11370,2,18570,3528.3,22098,-33.79615694171817,-71.44681103289328,-33.98846940863638,-71.4011541772653
137,632,Candice Rodgers,46915479,82,2022-11-14 22:30:43,2022-11-14 22:35:43,2022-11-15 20:56:43,1,721376557,3,13098,2488.62,15586,-33.59541520885772,-71.30237758828837,-34.39853050189089,-71.29274024904046
138,171,Virginia Lopez,67122570,50,2022-02-17 08:30:13,2022-02-17 08:44:13,2022-02-18 03:48:13,3,166872,1,27392,5204.4800000000005,32596,-34.48843535854862,-71.27478674216991,-33.842891419551336,-71.39609638170708
139,128,Marie Melton,33456802,70,2022-09-22 18:59:30,2022-09-22 19:13:30,2022-09-22 22:33:30,1,2339,2,4032,766.08,4798,-33.562247146284825,-71.36368147556843,-34.359485390685656,-70.71847297948722
140,452,Melissa Joseph,21504978,80,2022-04-09 19:39:50,2022-04-09 19:51:50,2022-04-10 03:18:50,1,18070,1,28073,5333.87,33406,-33.944932654267504,-70.97768916402185,-33.701187256461616,-70.50582113383624
141,621,Cory Anderson,52312970,2,2022-12-22 08:11:57,2022-12-22 08:15:57,2022-12-23 03:02:57,4,521,3,13625,2588.75,16213,-34.223082209519795,-70.57255143631185,-34.07164802857745,-71.0457688877864
142,115,David Ortiz,26128029,31,2022-08-27 03:41:25,2022-08-27 03:43:25,2022-08-27 13:24:25,2,327411034,2,25280,4803.2,30083,-33.70179969399942,-70.697710837783,-34.32963322922042,-70.8155882972914
143,824,Amber Nelson,86019216,7,2022-12-04 13:26:56,2022-12-04 13:29:56,2022-12-05 01:00:56,3,21278,2,29374,5581.06,34955,-33.780531824067374,-71.11721847596021,-34.0317921669546,-71.2976731979439
144,889,Beth Young,37284629,53,2022-12-03 12:59:30,2022-12-03 13:04:30,2022-12-04 03:48:30,5,84,2,29256,5558.64,34814,-33.57355433791952,-71.33497766142456,-34.19624206191636,-71.43232433569001
145,608,Gail Sawyer,50711599,49,2022-06-12 14:54:06,2022-06-12 14:57:06,2022-06-12 22:49:06,1,10968601,3,9875,1876.25,11751,-33.504108901746854,-71.0318086573639,-34.123159538574626,-70.8827050644398
146,723,Sierra Rowe,70882480,37,2022-09-13 05:19:57,2022-09-13 05:32:57,2022-09-13 10:30:57,5,321093,2,10400,1976.0,12376,-34.309301958487154,-70.86469150420902,-34.33073597235284,-71.25720088584762
147,900,James Marshall,13917594,25,2022-11-04 07:39:10,2022-11-04 07:45:10,2022-11-04 14:29:10,3,306,2,26717,5076.2300000000005,31793,-33.844694341004605,-71.41168041801305,-33.85543762846334,-70.70944146179822
148,663,William Palmer,92758059,9,2022-12-20 17:17:54,2022-12-20 17:29:54,2022-12-21 11:16:54,1,4030,1,16875,3206.25,20081,-34.07870644304397,-70.69742862908596,-34.340037379785834,-70.9622968626178
149,406,Juan Carroll,95548180,96,2022-03-31 02:25:32,2022-03-31 02:29:32,2022-04-01 01:22:32,5,30,2,26730,5078.7,31808,-33.584067909861304,-71.13915275826211,-34.043016923567606,-70.50416690257714
150,48,Ronald Riley,68850453,47,2022-05-09 10:21:36,2022-05-09 10:34:36,2022-05-10 05:32:36,2,438,2,4206,799.14,5005,-34.02371564202333,-70.93876023211432,-33.647263056354944,-70.7105948857948
151,115,David Ortiz,26128029,12,2022-01-19 02:53:31,2022-01-19 03:05:31,2022-01-20 00:58:31,1,30395,2,22302,4237.38,26539,-33.55413606645686,-70.6838045403202,-34.20709584958403,-71.21419165812155
152,41,Daniel Schmidt,45156127,61,2022-07-22 20:31:13,2022-07-22 20:37:13,2022-07-23 19:54:13,3,95,2,27550,5234.5,32784,-33.95252475297285,-71.14106736023012,-34.48995952173685,-71.05128101725087
153,749,Jeremy Brown,94582816,33,2022-06-23 05:42:02,2022-06-23 05:49:02,2022-06-24 04:58:02,3,7,3,27301,5187.1900000000005,32488,-33.75440368034537,-71.17322027258619,-33.91875226422378,-71.33687146717823
154,478,Jennifer Ortiz,17582538,50,2022-04-05 05:05:10,2022-04-05 05:08:10,2022-04-06 01:20:10,1,1561,2,19454,3696.26,23150,-34.46652732498358,-70.82971624696982,-33.779169036101955,-70.65960912590134
155,177,Briana Burns,44156973,62,2022-07-19 17:04:32,2022-07-19 17:10:32,2022-07-19 22:05:32,6,44082,1,29712,5645.28,35357,-33.65959702416057,-70.71913473491817,-33.586338667587334,-71.15787269470161
156,532,Amy Luna,57207672,25,2022-04-11 03:08:13,2022-04-11 03:19:13,2022-04-11 14:22:13,4,97,1,26584,5050.96,31634,-34.3646671010694,-71.01080140898132,-34.067812938815365,-71.03265849151586
157,694,Erika Reed,82316258,77,2022-05-29 21:19:23,2022-05-29 21:27:23,2022-05-30 03:13:23,2,71248856,2,22964,4363.16,27327,-33.766545242870585,-70.51126117507671,-33.995461935352445,-70.70805612617731
158,969,Ryan Wright,90464752,12,2022-04-01 05:41:39,2022-04-01 05:47:39,2022-04-02 00:25:39,2,515,2,16153,3069.07,19222,-33.60541413530116,-71.11855450788048,-34.341588077672256,-71.32109284547019
159,326,Zachary Maddox,75307558,94,2022-11-01 13:31:15,2022-11-01 13:35:15,2022-11-02 06:52:15,5,86982,3,11249,2137.31,13386,-33.8700534797976,-71.11178891915637,-33.646319392624875,-71.20122927562784
160,751,Alexander Williamson,36494619,21,2022-04-26 19:40:27,2022-04-26 19:50:27,2022-04-27 09:44:27,5,6407,3,25096,4768.24,29864,-33.759571118924605,-71.45920943384834,-34.16827795848034,-71.44633185053607
161,870,Amanda Martin,85878914,1,2022-02-01 15:11:29,2022-02-01 15:15:29,2022-02-02 08:44:29,5,18991368,1,18197,3457.43,21654,-33.95515681525165,-70.62474724696166,-33.66987041460515,-70.71752837227925
162,893,Mr. Jose Davis,84023193,46,2022-11-11 03:07:00,2022-11-11 03:11:00,2022-11-11 23:35:00,3,962,1,9988,1897.72,11885,-33.53091210201023,-70.67222453700799,-33.79473129489825,-71.27505122445245
163,42,Christine Raymond,49526598,80,2022-10-11 15:12:00,2022-10-11 15:27:00,2022-10-12 00:42:00,3,195616,1,16897,3210.43,20107,-33.80615720076498,-71.09471312741276,-34.47783239123718,-70.67128768125993
164,77,Gary Simpson,41895754,62,2022-01-05 08:47:11,2022-01-05 08:52:11,2022-01-06 02:47:11,5,772,1,10368,1969.92,12337,-34.32920286713752,-71.30417779986693,-33.88319818470623,-70.5172241929501
165,503,Elizabeth Weiss PhD,52374840,23,2022-04-24 11:05:23,2022-04-24 11:10:23,2022-04-24 21:41:23,5,6005,2,25032,4756.08,29788,-33.876116319177555,-70.70205181113005,-33.85131578433665,-70.63034499136897
166,943,Eric Meyer,21986655,53,2022-04-14 04:45:15,2022-04-14 04:57:15,2022-04-14 15:05:15,1,78603652,2,21107,4010.33,25117,-34.11480394407839,-71.09870513857918,-33.937175561961126,-70.98493572688096
167,562,Brittney Nelson,47878439,37,2022-01-06 10:53:56,2022-01-06 11:05:56,2022-01-07 01:20:56,4,8499570,1,12399,2355.81,14754,-33.91179870919593,-70.77298340312427,-33.96900495116004,-70.67132643706653
168,97,Christina Foster,27958172,46,2022-01-04 13:03:35,2022-01-04 13:14:35,2022-01-05 07:56:35,6,752,3,14634,2780.46,17414,-34.35480743115374,-71.43455244226246,-33.8102424039969,-71.0249846687764
169,835,Jennifer Howard,73647823,80,2022-08-05 15:01:23,2022-08-05 15:03:23,2022-08-05 15:14:23,5,26,2,3815,724.85,4539,-34.17539090869573,-70.60367451858218,-33.75508794424558,-71.07719741240302
170,619,Isaiah Davidson,56661124,30,2022-09-25 01:27:43,2022-09-25 01:38:43,2022-09-25 02:20:43,1,819603755,2,19020,3613.8,22633,-34.27589139619192,-70.54538464435215,-34.465215427796295,-71.47365360756996
171,666,Scott Turner,50995338,29,2022-05-08 22:48:14,2022-05-08 22:53:14,2022-05-09 09:38:14,3,6730088,1,6183,1174.77,7357,-34.333694390831496,-71.00506728894693,-33.57581383109821,-70.77451824034996
172,974,Rebecca Kelley,30934370,49,2022-11-12 01:23:40,2022-11-12 01:27:40,2022-11-12 17:10:40,5,13209505,1,20229,3843.51,24072,-34.29552372653668,-71.20981076104745,-33.9626036439912,-70.94474245006035
173,82,James Tran,40683046,88,2022-06-21 18:08:56,2022-06-21 18:13:56,2022-06-22 08:00:56,6,7614,2,18434,3502.46,21936,-33.62222985196619,-70.62183122856737,-33.5464859379292,-70.5696638536208
174,887,Mitchell Cline,75437042,42,2022-06-09 23:44:06,2022-06-09 23:50:06,2022-06-10 08:16:06,2,51529,1,1390,264.1,1654,-33.51841860668512,-70.5123684513466,-33.92466052293904,-71.30782254861114
175,970,Mitchell Mercado,42850322,67,2022-01-27 19:02:47,2022-01-27 19:09:47,2022-01-28 15:22:47,1,4336279,1,10144,1927.3600000000001,12071,-34.401823906128634,-70.95239439456675,-34.076057666976574,-70.98073468571728
176,50,Craig Gomez,98521001,90,2022-06-18 09:54:25,2022-06-18 09:55:25,2022-06-18 22:19:25,5,3867,3,25374,4821.06,30195,-33.913117677246674,-70.67288969256548,-33.96793624482581,-70.65253489983914
177,45,Jennifer Floyd,99791130,80,2022-12-20 10:01:36,2022-12-20 10:03:36,2022-12-20 21:45:36,2,891220,2,5452,1035.88,6487,-34.24573091929345,-70.53210463283342,-33.714754507122166,-70.78730055680725
178,657,John Russell,40522939,73,2022-05-06 20:19:53,2022-05-06 20:31:53,2022-05-07 13:24:53,2,319605260,3,1420,269.8,1689,-34.01371649614361,-70.51321186549444,-33.596625600521904,-71.09517004089557
179,564,Jennifer Jones,30757209,68,2022-06-18 18:13:18,2022-06-18 18:23:18,2022-06-19 12:47:18,6,52178,2,13279,2523.01,15802,-34.35246659128863,-71.1771544722044,-34.28136502372937,-70.52027731837619
180,725,Jill Martin,92235880,63,2022-12-06 14:48:40,2022-12-06 14:51:40,2022-12-06 16:50:40,3,778502007,1,16931,3216.89,20147,-33.567749775504545,-70.67649849928561,-33.605985091642474,-70.8754178276569
181,304,Melanie Williams,37468102,38,2022-05-31 06:53:02,2022-05-31 07:02:02,2022-05-31 19:40:02,1,9554346,2,13080,2485.2,15565,-33.686340031902816,-71.29355495984088,-34.33326887884219,-70.82574715655652
182,666,Scott Turner,50995338,77,2022-10-12 12:03:53,2022-10-12 12:04:53,2022-10-13 09:26:53,1,17734118,3,24790,4710.1,29500,-34.36363102031825,-70.920992232859,-34.319632549992484,-71.43099824613641
183,823,Lauren Tucker,24703365,30,2022-11-26 05:23:56,2022-11-26 05:24:56,2022-11-26 20:15:56,4,9,2,25267,4800.7300000000005,30067,-33.82733755397937,-71.47115058275406,-33.72713033043056,-70.77990192686552
184,373,Diamond Walsh,58026763,77,2022-03-06 09:32:59,2022-03-06 09:45:59,2022-03-06 16:32:59,4,6,2,28125,5343.75,33468,-34.207021780801256,-71.13262472829665,-34.07788221217099,-71.44026208606407
185,293,Joshua Blevins,34700725,46,2022-08-22 22:16:02,2022-08-22 22:25:02,2022-08-23 19:44:02,4,8532,3,22405,4256.95,26661,-34.49805027781243,-70.65413589582883,-33.594739631172615,-70.53703044661974
186,235,Gregory Jackson,18496830,40,2022-07-14 03:37:47,2022-07-14 03:38:47,2022-07-15 00:38:47,1,7920981,1,18496,3514.2400000000002,22010,-34.31261933435318,-71.34237982397032,-33.87920875104922,-70.54303800603972
187,505,Erin Peterson MD,46875514,28,2022-03-06 08:43:31,2022-03-06 08:56:31,2022-03-07 05:59:31,1,34823,2,16685,3170.15,19855,-34.43077006535241,-70.99278373610562,-33.67520038840876,-70.52644287749091
188,286,Harold Bell,18495701,5,2022-08-26 21:32:52,2022-08-26 21:42:52,2022-08-27 16:44:52,3,3617798,1,6417,1219.23,7636,-34.17269396511689,-70.98917375530971,-33.790844943092665,-71.00215257448214
189,245,Kimberly Ramirez,24726903,24,2022-08-12 15:35:51,2022-08-12 15:39:51,2022-08-12 22:25:51,4,64094,2,18502,3515.38,22017,-33.77933267066439,-71.05511032772895,-34.2502414740305,-70.6977136757126
190,317,Stephanie Lopez,49485765,62,2022-04-27 22:21:24,2022-04-27 22:34:24,2022-04-28 16:24:24,4,95,2,18017,3423.23,21440,-33.606049605375304,-71.25915806360507,-34.0649737667657,-71.36064753191486
191,283,Christine Nelson,75102480,51,2022-12-16 11:29:38,2022-12-16 11:42:38,2022-12-16 17:02:38,6,34,3,7434,1412.46,8846,-33.68416614381989,-70.97020962035636,-34.409501620763265,-71.43759469905608
192,28,Russell Wilcox,55874270,99,2022-06-30 11:40:27,2022-06-30 11:55:27,2022-07-01 00:04:27,4,4012,2,16451,3125.69,19576,-33.56315977974732,-70.50401811913322,-34.357962538721544,-71.13318052889478
193,360,Kelly Murphy,55796583,39,2022-05-07 16:43:30,2022-05-07 16:57:30,2022-05-07 20:09:30,6,2726929,3,9306,1768.14,11074,-34.425417193677944,-70.76270291607442,-34.10357670034542,-70.98685487192509
194,322,Lindsay Mathews,40450538,70,2022-11-03 20:51:55,2022-11-03 21:04:55,2022-11-04 15:25:55,1,717033607,1,20023,3804.37,23827,-33.55911963511128,-71.25680214296679,-34.07957646462951,-71.27018520690466
195,220,Sandra Walker,84646192,34,2022-09-24 19:25:11,2022-09-24 19:38:11,2022-09-25 03:00:11,5,13831,2,24404,4636.76,29040,-34.3246472510246,-70.73003260381884,-34.39945044748115,-70.8280403426684
196,39,Jean Kim,70823415,38,2022-04-12 12:20:24,2022-04-12 12:26:24,2022-04-13 00:25:24,6,746,1,24070,4573.3,28643,-34.1819971735946,-71.0814398423228,-33.850117350331544,-70.68730552875199
197,491,Stephen Wood,23195978,26,2022-10-17 23:47:32,2022-10-17 23:58:32,2022-10-18 21:29:32,3,62123593,3,26029,4945.51,30974,-33.761380704724715,-71.46708554312994,-33.553608560918605,-71.26455625027732
198,333,Dakota Alexander,64399689,69,2022-06-29 14:12:21,2022-06-29 14:16:21,2022-06-30 01:13:21,3,1,3,14979,2846.01,17825,-34.39466529187388,-70.87158967886963,-33.689319283719705,-70.63970026433583
199,414,Spencer Cowan,94383838,95,2022-09-14 04:46:30,2022-09-14 05:00:30,2022-09-14 06:18:30,6,5185277,1,28414,5398.66,33812,-34.111362000578524,-70.8639472189271,-33.6684997517981,-70.56673929455287
200,106,Crystal Johnson,78971225,7,2022-12-30 14:44:41,2022-12-30 14:57:41,2022-12-31 11:09:41,6,459046,2,2532,481.08,3013,-33.700216297686715,-71.40985970707429,-34.05925763942788,-70.82071457257526
201,177,Briana Burns,44156973,6,2022-07-07 00:56:45,2022-07-07 01:07:45,2022-07-07 08:46:45,2,59970,3,4766,905.54,5671,-33.80012590036619,-70.64863356909264,-33.7586705943945,-71.02481309417973
202,783,Ryan Jones,93404803,83,2022-09-22 18:17:46,2022-09-22 18:20:46,2022-09-23 03:20:46,4,3,3,24037,4567.03,28604,-34.15331369413442,-71.41462992604843,-33.72080563179045,-70.54827842567185
203,913,Heather Edwards,73224730,52,2022-12-14 06:05:43,2022-12-14 06:18:43,2022-12-14 07:54:43,6,203270,3,8083,1535.77,9618,-34.45904729737993,-70.79706258964274,-33.983825793665225,-70.69318484905675
204,356,Michelle Lee,85607742,84,2022-06-06 04:41:39,2022-06-06 04:43:39,2022-06-07 03:11:39,1,5019545,1,7884,1497.96,9381,-34.08105463795614,-71.2843533712935,-34.14091842133424,-70.62341261029916
205,893,Mr. Jose Davis,84023193,96,2022-04-18 01:16:46,2022-04-18 01:19:46,2022-04-18 07:43:46,2,812,3,18667,3546.73,22213,-33.62280257536618,-70.82626321146626,-34.254169621537145,-70.53995345167202
206,360,Kelly Murphy,55796583,37,2022-03-31 11:54:57,2022-03-31 11:58:57,2022-04-01 08:30:57,5,566,1,20403,3876.57,24279,-33.68680515822529,-70.58186332935466,-34.27200214833207,-71.06372613327979
207,377,Robert White,86809980,57,2022-07-28 02:38:19,2022-07-28 02:50:19,2022-07-28 17:19:19,4,917,1,11842,2249.98,14091,-34.196281284434754,-70.83391433549863,-34.176491786113736,-71.39374491350989
208,103,Sabrina Pratt,97249712,94,2022-12-14 06:22:56,2022-12-14 06:37:56,2022-12-15 02:15:56,1,19,2,23111,4391.09,27502,-34.4708721599682,-70.8327986717405,-33.8766871857462,-70.7277164603157
209,57,Charlene Riggs,82733799,56,2022-12-16 14:36:45,2022-12-16 14:38:45,2022-12-16 16:37:45,1,958150944,3,15541,2952.79,18493,-33.655956375091655,-71.22396940607541,-34.13464854131506,-71.48769605340813
210,543,Scott Blevins Jr.,85622959,12,2022-06-24 20:50:38,2022-06-24 21:04:38,2022-06-25 12:34:38,5,778,2,14597,2773.43,17370,-33.62985205595068,-70.71589346717205,-34.1533131507051,-71.18543913372395
211,524,Tony Lewis,90442843,89,2022-02-25 01:02:11,2022-02-25 01:12:11,2022-02-25 13:45:11,5,68071,2,27171,5162.49,32333,-34.35120431389672,-71.25124730715335,-33.542578534891405,-71.31872827070383
212,764,Carla Ramirez,67944324,60,2022-11-05 13:15:36,2022-11-05 13:26:36,2022-11-05 19:55:36,4,28432045,1,4503,855.57,5358,-33.657429109070755,-71.13067492949102,-34.36441181569799,-71.44308674911134
213,976,Mr. Joe Lewis MD,49447381,26,2022-10-31 23:22:24,2022-10-31 23:23:24,2022-11-01 22:32:24,3,9822122,2,25209,4789.71,29998,-33.7439376253429,-70.97663307135558,-34.148999854662314,-71.04309802134036
214,906,Nicholas Montgomery,98133898,42,2022-04-27 15:03:44,2022-04-27 15:10:44,2022-04-27 23:46:44,1,174646353,2,8805,1672.95,10477,-33.752525326150156,-71.02624490212096,-34.11054954077086,-71.41970704988034
215,18,Norma Copeland,60267908,36,2022-05-24 11:37:49,2022-05-24 11:49:49,2022-05-25 09:23:49,2,5593396,2,2124,403.56,2527,-33.53430161744422,-70.65545950209228,-33.75850263752396,-70.88077473481476
216,870,Amanda Martin,85878914,32,2022-06-02 22:27:29,2022-06-02 22:30:29,2022-06-03 20:46:29,4,162833,2,25241,4795.79,30036,-34.02758640750578,-70.74693272552298,-34.23457547209324,-70.90548301979732
217,637,Scott Andrade,59229605,29,2022-10-13 23:54:58,2022-10-14 00:00:58,2022-10-14 14:07:58,2,2733,1,19865,3774.35,23639,-33.81324867922691,-71.04383308873938,-33.618279949129565,-70.74747411145265
218,374,Christopher Carter,95442896,78,2022-06-07 09:17:49,2022-06-07 09:32:49,2022-06-08 03:56:49,5,127915,2,5677,1078.63,6755,-34.29997131735659,-70.64899244765645,-33.964429593407374,-71.32192620505262
219,510,Shane Mercado,85195083,23,2022-06-14 12:02:36,2022-06-14 12:15:36,2022-06-15 03:22:36,6,8,3,20952,3980.88,24932,-33.80813457836958,-70.78575828801333,-34.32363442607287,-71.48385185410697
220,132,Mia Ramos,55268661,35,2022-08-18 00:25:36,2022-08-18 00:36:36,2022-08-18 21:36:36,4,71313,3,11337,2154.03,13491,-34.308271036920175,-70.88611674432455,-33.92257166412123,-70.89137739457483
221,401,Kristin Moore,17932520,81,2022-05-15 19:43:43,2022-05-15 19:46:43,2022-05-16 09:53:43,5,26137572,1,16928,3216.32,20144,-33.87797969817804,-71.21028842327213,-34.40785234971466,-70.60436836486302
222,834,Janice Moreno,10183776,15,2022-09-01 00:53:05,2022-09-01 01:02:05,2022-09-01 11:13:05,1,6804,1,20726,3937.94,24663,-33.594241321867756,-70.52934500044334,-34.25336660099752,-71.27673862845306
223,97,Christina Foster,27958172,27,2022-08-03 23:55:38,2022-08-04 00:10:38,2022-08-04 20:14:38,1,349,2,28661,5445.59,34106,-33.52934151653653,-70.86100204632716,-33.556646090832984,-70.7835328386558
224,775,William Gordon,78613263,20,2022-11-27 19:45:26,2022-11-27 19:59:26,2022-11-28 00:36:26,6,481998438,3,23407,4447.33,27854,-33.673998885293045,-71.35652659430507,-33.8242040051963,-70.8851015879232
225,679,Bradley Ryan,53915667,68,2022-06-26 07:56:18,2022-06-26 08:04:18,2022-06-26 21:51:18,6,30,3,24842,4719.9800000000005,29561,-33.51530219735561,-70.51441880550877,-33.87931154865875,-70.57513235112339
226,580,Joshua Peters,30413515,7,2022-07-17 03:49:32,2022-07-17 03:53:32,2022-07-17 04:12:32,6,7409,1,8623,1638.3700000000001,10261,-34.45036946159964,-71.13762697510494,-33.68302274238494,-71.0828548587151
227,143,Ms. Sherri Kelly,34429107,94,2022-11-03 08:22:18,2022-11-03 08:24:18,2022-11-04 07:58:18,5,5853223,1,8408,1597.52,10005,-33.790396705415034,-71.42768530289545,-33.7130686272634,-71.3566782434591
228,77,Gary Simpson,41895754,78,2022-06-19 21:26:07,2022-06-19 21:27:07,2022-06-20 06:35:07,4,9,3,20628,3919.32,24547,-33.52411199682933,-71.39495974195384,-34.05196720685221,-71.48454307932492
229,336,Teresa Mccarthy,53435870,91,2022-03-27 10:00:51,2022-03-27 10:10:51,2022-03-27 11:18:51,1,48280920,2,11334,2153.46,13487,-33.50261184125641,-71.3737054978141,-34.20816113416488,-71.32268386543045
230,977,Adam Thomas,44171745,40,2022-10-09 18:25:12,2022-10-09 18:30:12,2022-10-10 06:27:12,5,814,2,15431,2931.89,18362,-33.800301804618414,-71.47358784900236,-33.72712576241768,-70.7943442021815
231,67,Aaron Young,50702200,2,2022-03-16 19:46:48,2022-03-16 19:51:48,2022-03-17 10:40:48,5,18,2,17576,3339.44,20915,-33.912962899218584,-70.9447992467448,-34.42785905617665,-70.53883597001334
232,23,Jamie Gonzales,91633922,47,2022-10-20 17:05:49,2022-10-20 17:13:49,2022-10-21 06:04:49,5,3,3,28548,5424.12,33972,-33.545451107549034,-71.00324929205246,-33.676389250893436,-70.8331312038107
233,879,Edward Johnson,45052744,43,2022-04-10 23:23:31,2022-04-10 23:26:31,2022-04-11 21:54:31,4,905,2,17071,3243.4900000000002,20314,-33.95294784098204,-70.62882120323049,-33.690560102665124,-71.06778904401509
234,419,Matthew Burns,68991317,19,2022-12-31 19:43:02,2022-12-31 19:49:02,2022-12-31 20:26:02,5,22,1,27163,5160.97,32323,-34.064650211780496,-71.17221531487382,-34.351310993058625,-71.15142843770117
235,419,Matthew Burns,68991317,59,2022-03-22 19:58:25,2022-03-22 20:05:25,2022-03-23 18:29:25,5,45266,1,22667,4306.7300000000005,26973,-34.4193935842641,-71.28647478985062,-33.81334857380458,-70.93784576957778
236,525,Paul Stephens,36678067,94,2022-02-15 18:41:05,2022-02-15 18:49:05,2022-02-15 20:13:05,5,3,3,23672,4497.68,28169,-34.236890458243266,-70.76899255299564,-33.544083211156696,-70.72995660266774
237,680,Carlos Lewis,12211812,76,2022-12-24 16:41:08,2022-12-24 16:42:08,2022-12-25 15:54:08,3,26,3,13767,2615.73,16382,-34.22678083716057,-71.34490074432429,-33.82127147156197,-70.90843989487952
238,56,Jason Mcdonald,34756589,29,2022-05-23 15:36:12,2022-05-23 15:44:12,2022-05-24 11:13:12,5,9581758,2,23597,4483.43,28080,-33.65022842133101,-71.24338336210104,-33.52965118145965,-71.2892997929987
239,803,David Hamilton,18830637,67,2022-05-14 20:34:42,2022-05-14 20:48:42,2022-05-14 21:43:42,6,1,2,24409,4637.71,29046,-34.31843861423969,-71.01712757549944,-33.85333861936758,-70.50167134793105
240,128,Marie Melton,33456802,56,2022-07-19 19:11:35,2022-07-19 19:12:35,2022-07-20 13:32:35,2,9965,2,24482,4651.58,29133,-33.814068040129676,-71.37622177747937,-33.647012686508496,-71.43884119638184
241,499,Amy Williams,79568643,16,2022-07-12 16:59:44,2022-07-12 17:10:44,2022-07-13 09:19:44,5,2,2,17656,3354.64,21010,-33.81030279646929,-70.97430257520334,-33.99344422229583,-71.01375944648599
242,833,Erin Villarreal,97241451,0,2022-06-13 01:05:13,2022-06-13 01:16:13,2022-06-13 03:27:13,4,60155970,3,9380,1782.2,11162,-33.816891059372416,-70.84655514682915,-33.838562689022865,-71.3590033050506
243,938,Benjamin Hicks,46672813,15,2022-08-19 11:23:43,2022-08-19 11:29:43,2022-08-19 12:14:43,1,9718695,2,1200,228.0,1428,-34.000229456736,-70.74383366927827,-34.3419246121526,-70.51023645381484
244,3,Jimmy Steele,84760500,66,2022-12-10 09:46:22,2022-12-10 09:53:22,2022-12-11 07:46:22,2,2354,3,5539,1052.41,6591,-34.42031659891234,-71.13862255233171,-34.116400543708224,-71.15642272018515
245,910,Tyler Knight,43782516,33,2022-11-29 06:02:35,2022-11-29 06:10:35,2022-11-30 00:11:35,4,243698969,1,22580,4290.2,26870,-33.89376314095743,-70.55176474920268,-33.66625019944212,-71.33610670909756
246,923,Chad Myers,44664396,35,2022-06-30 12:56:56,2022-06-30 13:08:56,2022-06-30 17:10:56,5,45,3,17561,3336.59,20897,-33.52189838811722,-71.23257087597867,-33.71624891219362,-71.15985037790705
247,472,Patricia Golden,65687498,59,2022-08-16 15:06:43,2022-08-16 15:17:43,2022-08-17 09:55:43,3,75,1,6668,1266.92,7934,-33.71149973039158,-70.64537090409472,-34.16159981605287,-70.99699414596057
248,221,Natalie Spears,72562578,21,2022-01-16 23:45:28,2022-01-16 23:57:28,2022-01-17 00:43:28,3,457100,3,26901,5111.1900000000005,32012,-33.84696937916742,-71.42303461075154,-34.260417930282486,-71.24464104564105
249,100,Julia Rodriguez,81392364,94,2022-12-07 16:29:20,2022-12-07 16:38:20,2022-12-08 10:57:20,3,30634,2,27941,5308.79,33249,-34.20478375893923,-71.21995888568037,-34.3770196876909,-70.89139504945321
250,966,Mary Keller,14582436,41,2022-07-02 12:14:55,2022-07-02 12:16:55,2022-07-03 07:48:55,4,2,1,15429,2931.51,18360,-33.5916786571394,-70.67714579691653,-33.6365353181744,-70.67984242950163
251,642,Jonathan Duncan,75718301,55,2022-01-30 07:51:31,2022-01-30 08:06:31,2022-01-31 07:47:31,6,86648,2,14827,2817.13,17644,-34.45902945333981,-70.64361329038202,-33.74249210058355,-71.25525420432945
252,162,Joshua Salas,12446449,11,2022-09-20 19:17:54,2022-09-20 19:29:54,2022-09-21 01:26:54,3,8923857,1,16250,3087.5,19337,-33.8468488902213,-71.34195915203613,-33.99881656252324,-70.91156459684998
253,403,Erik Bell,85592547,37,2022-04-12 17:51:53,2022-04-12 17:53:53,2022-04-13 05:27:53,4,7,2,14550,2764.5,17314,-33.52397064232324,-70.58762929317228,-34.13838533296467,-71.30169978614964
254,455,Tina Briggs,47279554,2,2022-04-09 22:09:07,2022-04-09 22:11:07,2022-04-09 23:37:07,5,656,1,16952,3220.88,20172,-33.80889065596339,-71.299729806405,-33.935431666214775,-71.0170958666239
255,997,Robert Benton,23154408,31,2022-05-07 06:22:23,2022-05-07 06:37:23,2022-05-07 12:45:23,4,563,3,6740,1280.6,8020,-34.06578719482572,-70.69109162589308,-34.17523521060578,-71.25874073107568
256,502,Francisco Valdez,55916191,85,2022-12-26 07:05:28,2022-12-26 07:18:28,2022-12-26 20:09:28,6,8,3,23884,4537.96,28421,-34.09551410017517,-71.11213976531307,-34.41646624278721,-71.33079557933965
257,487,Tammy Mclaughlin,73482830,89,2022-11-06 03:53:09,2022-11-06 04:05:09,2022-11-07 02:01:09,3,3661204,2,5137,976.03,6113,-33.92826668890517,-70.68762977151478,-34.03890515934785,-70.70618693672303
258,450,Joseph Rogers,98386668,21,2022-06-06 14:53:56,2022-06-06 14:57:56,2022-06-07 05:12:56,6,736971608,1,27652,5253.88,32905,-34.44994635815137,-71.06084301486575,-33.95579230948005,-70.96384192364656
259,605,Philip Garcia,78005961,24,2022-11-19 18:19:50,2022-11-19 18:34:50,2022-11-20 12:18:50,4,3937213,2,20220,3841.8,24061,-34.083260437717435,-70.53699835940124,-34.0810259581484,-70.82625646173018
260,562,Brittney Nelson,47878439,3,2022-12-29 13:32:17,2022-12-29 13:45:17,2022-12-29 20:27:17,2,23568868,3,12061,2291.59,14352,-34.25844680691159,-71.0811279265884,-34.485013493382176,-70.60456896058403
261,411,Wendy Bennett,92968869,10,2022-01-28 19:00:21,2022-01-28 19:10:21,2022-01-29 16:37:21,5,8608,1,8019,1523.6100000000001,9542,-33.75372511883972,-71.34528206376001,-33.69855788687893,-71.42426478798366
262,152,Christina Bryant,64569373,31,2022-07-26 10:06:50,2022-07-26 10:13:50,2022-07-27 02:09:50,1,712930,2,11104,2109.76,13213,-34.35193396941696,-71.2707747107871,-34.05172393017463,-70.72552325560585
263,940,Savannah Morgan,42088549,19,2022-09-12 05:28:27,2022-09-12 05:41:27,2022-09-13 00:07:27,6,191,2,29587,5621.53,35208,-33.73477434424562,-71.03050546712669,-34.12330840084827,-71.37095682476016
264,213,Bonnie Hudson,50879046,9,2022-09-21 12:28:32,2022-09-21 12:34:32,2022-09-22 10:28:32,5,244269808,1,23696,4502.24,28198,-33.64202079668759,-70.91273751959008,-34.045753650100345,-71.24248136538155
265,680,Carlos Lewis,12211812,86,2022-10-04 02:37:28,2022-10-04 02:45:28,2022-10-04 11:56:28,5,5126,1,5979,1136.01,7115,-34.39356041522099,-71.44113876705697,-34.24996089801011,-71.31247846517088
266,780,Michelle Rivera,20956813,89,2022-06-29 14:03:05,2022-06-29 14:11:05,2022-06-30 12:36:05,4,73043,2,15956,3031.64,18987,-34.18752762571959,-71.17618874961813,-34.02232883924927,-70.90780189823187
267,565,Keith Hooper,21281398,50,2022-09-18 16:29:01,2022-09-18 16:38:01,2022-09-19 05:43:01,4,31104,1,3063,581.97,3644,-33.825815736026065,-70.70886829346283,-34.15030036525238,-70.77480368045696
268,387,Charles Lawson,12310824,12,2022-11-13 19:16:37,2022-11-13 19:28:37,2022-11-14 05:11:37,1,930751,3,1555,295.45,1850,-33.794948102355605,-71.34857952621815,-33.534325840364886,-70.96111726385918
269,368,Julie Anderson,40948969,9,2022-11-18 16:29:24,2022-11-18 16:34:24,2022-11-19 06:25:24,3,70,1,27404,5206.76,32610,-33.79305098029529,-70.63755945624281,-33.959125733581274,-70.88453542243731
270,508,Ann Merritt,59568477,28,2022-05-17 17:51:42,2022-05-17 17:52:42,2022-05-18 12:07:42,6,89,2,26572,5048.68,31620,-33.96590450332986,-70.50159119715651,-34.169002256542555,-71.18459527135593
271,232,Beth Hernandez,42938435,90,2022-10-30 04:08:04,2022-10-30 04:12:04,2022-10-31 02:46:04,3,300,1,25560,4856.4,30416,-34.01244575150711,-70.89190991154892,-34.395621695694906,-71.42565549018644
272,403,Erik Bell,85592547,7,2022-03-15 18:17:05,2022-03-15 18:26:05,2022-03-16 02:03:05,5,492330,1,23979,4556.01,28535,-34.000581681638984,-71.2642457216051,-34.4748198795203,-71.15833765081949
273,76,Laura King,83813304,2,2022-10-07 15:15:10,2022-10-07 15:19:10,2022-10-08 06:48:10,1,862186,3,14695,2792.05,17487,-33.97046279395108,-70.91892182955175,-33.93579392630925,-71.42111777160717
274,625,Melvin Roman,57232389,61,2022-07-01 18:50:01,2022-07-01 18:59:01,2022-07-02 06:48:01,2,7,1,13388,2543.7200000000003,15931,-34.327753111382435,-71.2130687677688,-33.553885234540594,-70.79705377636694
275,8,Ralph Mckenzie,63589244,17,2022-05-31 12:42:40,2022-05-31 12:45:40,2022-06-01 04:27:40,1,56123030,1,8383,1592.77,9975,-34.10451025427466,-71.24306966528962,-34.43338160615386,-71.01602570546629
276,663,William Palmer,92758059,45,2022-01-05 14:24:53,2022-01-05 14:30:53,2022-01-06 13:13:53,3,82,2,28600,5434.0,34034,-33.653163600923115,-70.98307537112494,-33.863193027736926,-70.59072855110608
277,371,Antonio Moody MD,11780787,7,2022-11-29 00:26:25,2022-11-29 00:36:25,2022-11-29 01:16:25,4,2530437,2,8652,1643.88,10295,-33.90095724542931,-71.22451937235735,-34.21229184634112,-70.77103971317516
278,209,Rebecca Owens,11899166,9,2022-11-10 16:47:46,2022-11-10 16:49:46,2022-11-10 23:04:46,5,24014250,2,2453,466.07,2919,-34.32271515455033,-71.17620494461696,-33.72656920528159,-71.13832930241973
279,977,Adam Thomas,44171745,17,2022-03-18 20:59:55,2022-03-18 21:03:55,2022-03-19 09:03:55,4,65,2,29569,5618.11,35187,-33.65591757170658,-71.40862065789737,-34.07656785264376,-70.926664445327
280,306,Bruce Edwards,52289772,47,2022-08-06 15:13:58,2022-08-06 15:21:58,2022-08-07 04:53:58,3,350274044,1,1522,289.18,1811,-34.304602718049004,-71.47289559445795,-34.44906708786942,-71.42874712120299
281,311,Kayla Strickland,30517365,70,2022-07-25 15:09:19,2022-07-25 15:23:19,2022-07-26 08:43:19,5,559135198,3,15483,2941.77,18424,-34.179936390160776,-70.58873727506261,-33.90442815178907,-71.01260603711785
282,191,Anthony Zhang,95426392,37,2022-07-08 02:36:20,2022-07-08 02:43:20,2022-07-08 12:03:20,6,446,1,15220,2891.8,18111,-34.2863985323468,-71.15847392544678,-33.98198871191041,-70.9997426424317
283,278,Michele Jones,84870416,70,2022-09-25 13:49:07,2022-09-25 13:50:07,2022-09-26 09:34:07,6,5545,1,9001,1710.19,10711,-34.36769996241936,-71.21454795035085,-34.2963357663211,-71.08103218696394
284,795,Nicole Sampson,46234436,20,2022-11-07 13:26:50,2022-11-07 13:32:50,2022-11-08 02:16:50,6,912159,1,16958,3222.02,20180,-33.599179945059916,-70.56665961857986,-33.88094023998176,-70.91293507447615
285,742,Joseph Barr,56417226,93,2022-09-28 05:43:02,2022-09-28 05:58:02,2022-09-28 12:57:02,5,20,3,2412,458.28000000000003,2870,-33.90657474787749,-70.6554008390254,-33.84102875891709,-70.66881398219216
286,655,Richard Patterson,20717961,38,2022-12-01 04:33:51,2022-12-01 04:39:51,2022-12-02 03:40:51,3,3,2,7842,1489.98,9331,-34.46092616615064,-71.39781631819913,-33.78560416805616,-71.02530959062082
287,51,Peggy Jimenez,74868268,25,2022-04-06 10:23:10,2022-04-06 10:32:10,2022-04-06 13:12:10,1,29724,2,22277,4232.63,26509,-34.10456155106634,-70.72244973301314,-34.46893951748417,-70.53618509805361
288,534,Sarah Morgan,34171214,64,2022-02-17 03:51:41,2022-02-17 03:53:41,2022-02-17 15:05:41,4,840,1,9984,1896.96,11880,-34.37816997926771,-71.07308039997935,-34.40139587343887,-71.35551110057848
289,212,Mrs. Sylvia Jacobs,97712960,93,2022-10-27 18:23:13,2022-10-27 18:26:13,2022-10-27 21:28:13,5,783225050,3,14116,2682.04,16798,-33.515569508056515,-70.74045533724487,-34.43753116568824,-71.07175869825369
290,315,Matthew Barrett,85933698,75,2022-02-16 22:07:38,2022-02-16 22:14:38,2022-02-17 03:18:38,4,85319,1,7704,1463.76,9167,-34.37089954743462,-70.88542949355033,-33.91819169689804,-71.19653129902917
291,998,David Lee,11992036,23,2022-04-01 03:52:57,2022-04-01 03:55:57,2022-04-01 19:30:57,2,13,3,29172,5542.68,34714,-34.27137526474428,-71.14524298544269,-33.91287612575111,-71.38635437801975
292,514,Robert Cuevas,54835643,4,2022-02-26 11:53:37,2022-02-26 11:57:37,2022-02-26 16:39:37,2,359528,3,7018,1333.42,8351,-33.87663595277557,-71.06518293355393,-34.33916197261142,-71.09149218060192
293,675,Sheila Gordon,61133130,2,2022-01-17 09:47:55,2022-01-17 10:02:55,2022-01-17 21:12:55,1,34890,1,19949,3790.31,23739,-33.765667406903695,-71.16652934719754,-33.76607879646862,-70.95654609993252
294,165,Jeffrey Larsen,83368244,18,2022-09-06 09:26:29,2022-09-06 09:27:29,2022-09-06 10:08:29,3,75,1,26784,5088.96,31872,-33.96900446177033,-71.11579208979947,-34.48887901118082,-71.11370330479393
295,298,Mary Willis,98750626,17,2022-02-10 09:43:49,2022-02-10 09:45:49,2022-02-11 08:18:49,4,108600972,2,7392,1404.48,8796,-34.393375644364845,-71.11713323606534,-33.721664152800805,-70.80569066954054
296,242,Brittany Johnson,86937324,68,2022-03-21 05:59:03,2022-03-21 06:01:03,2022-03-21 22:09:03,3,164,3,27132,5155.08,32287,-34.26908769540167,-71.37279949947624,-33.79071045881124,-71.23178139581773
297,960,Laura Young,83119183,94,2022-10-10 01:19:35,2022-10-10 01:32:35,2022-10-10 09:30:35,6,919,1,25179,4784.01,29963,-33.88346453555168,-70.62353063176678,-34.43056992436631,-71.3416945512811
298,649,Victoria Conway,87596799,36,2022-06-08 08:30:36,2022-06-08 08:40:36,2022-06-08 18:11:36,3,7629,1,6453,1226.07,7679,-33.63709449933238,-70.88273209141649,-33.64876144659957,-70.83877783657886
299,782,Aaron Little,68936087,33,2022-03-11 00:28:55,2022-03-11 00:40:55,2022-03-11 04:19:55,6,2,3,15378,2921.82,18299,-34.33617290771108,-70.50719236992289,-33.97642865753163,-70.65322901338047
300,714,Anthony Burke,16692231,86,2022-02-25 16:20:27,2022-02-25 16:35:27,2022-02-25 16:52:27,2,85,1,23397,4445.43,27842,-33.92936236543524,-71.45310199689273,-33.9747606793199,-70.87798463227807
301,970,Mitchell Mercado,42850322,45,2022-12-23 21:31:34,2022-12-23 21:45:34,2022-12-24 09:52:34,2,579651,3,27193,5166.67,32359,-33.865624171064496,-71.39151713132898,-33.95171949472703,-70.51217549942184
302,508,Ann Merritt,59568477,85,2022-07-15 00:29:29,2022-07-15 00:39:29,2022-07-15 07:35:29,5,604,3,14488,2752.7200000000003,17240,-33.90262375066039,-70.69113629045474,-34.35246455261609,-71.0699434177411
303,170,Bruce Roy,88356692,77,2022-02-10 13:44:26,2022-02-10 13:55:26,2022-02-10 16:21:26,4,78297,1,18921,3594.9900000000002,22515,-33.908365612795116,-71.1989124039696,-34.19796927252694,-71.08381755844435
304,483,Jonathan Dixon,14702324,92,2022-09-22 15:06:07,2022-09-22 15:08:07,2022-09-23 01:13:07,2,17,3,13823,2626.37,16449,-33.65204654544323,-70.98931127649684,-34.444752413960714,-71.35418037055814
305,388,Marissa Carter,70888742,72,2022-07-05 13:42:57,2022-07-05 13:51:57,2022-07-05 18:42:57,6,970577266,2,12847,2440.93,15287,-34.26862543111114,-70.69875572936289,-34.28599999451827,-70.99429444634528
306,237,Emma Garcia,60043596,72,2022-02-21 07:44:14,2022-02-21 07:49:14,2022-02-21 18:37:14,5,5804380,3,20991,3988.29,24979,-34.213770482971746,-71.05840515959784,-34.2954462027017,-71.4695180590195
307,944,Steven Allen,77510564,35,2022-06-29 15:29:50,2022-06-29 15:30:50,2022-06-30 10:56:50,4,1888,1,23069,4383.11,27452,-34.4826210513332,-70.94798559560182,-34.42297783800635,-71.3087833113597
308,16,Laura Arellano,80670591,81,2022-04-18 16:15:24,2022-04-18 16:24:24,2022-04-19 14:36:24,4,6,2,25211,4790.09,30001,-33.749604261934145,-70.873365723153,-33.80330946242386,-70.59670526645155
309,705,Cheryl Wood,51163432,88,2022-01-29 17:16:06,2022-01-29 17:29:06,2022-01-29 21:50:06,2,34633,2,28334,5383.46,33717,-33.92773573212551,-70.85910555864281,-33.89370131340964,-71.40872909672274
310,998,David Lee,11992036,71,2022-06-06 11:10:52,2022-06-06 11:16:52,2022-06-06 12:53:52,1,109545907,1,9007,1711.33,10718,-33.836869632216356,-71.30509678160296,-34.25143515067768,-71.04575219329041
311,929,Olivia Bell,23322079,78,2022-07-18 03:37:03,2022-07-18 03:48:03,2022-07-18 10:16:03,6,219,3,28617,5437.2300000000005,34054,-34.17232704558971,-71.30082816216265,-33.992419947835636,-71.48370171314744
312,240,Darlene Melendez,16370995,2,2022-01-26 07:08:21,2022-01-26 07:09:21,2022-01-27 04:12:21,3,7189,2,23248,4417.12,27665,-34.198607407299974,-71.23721982505187,-33.61982510921881,-70.88712828764042
313,131,Jennifer Garcia,60520889,77,2022-10-07 08:22:53,2022-10-07 08:30:53,2022-10-08 03:10:53,2,801667282,1,14760,2804.4,17564,-34.48482452633741,-70.70917531859668,-34.263925916670814,-71.26731114562978
314,62,Kristin Scott,76201968,26,2022-12-03 22:23:19,2022-12-03 22:30:19,2022-12-04 19:39:19,1,562298,3,2649,503.31,3152,-33.858220600601705,-70.86211201953313,-33.776832737191945,-70.88823211014912
315,367,Andrea Mills,93347030,80,2022-04-07 21:57:24,2022-04-07 22:03:24,2022-04-08 18:34:24,6,4650,3,1792,340.48,2132,-33.61627586191987,-71.43719386836547,-34.47279900504653,-71.3136510869556
316,735,Sara Moore,40822912,94,2022-08-19 00:59:18,2022-08-19 01:11:18,2022-08-19 14:26:18,3,4857,1,2781,528.39,3309,-34.053477428856894,-70.98638331824138,-34.12852139891796,-71.11161019223887
317,979,Jorge Gomez,76908262,51,2022-11-21 13:50:41,2022-11-21 13:52:41,2022-11-22 01:50:41,3,2,2,21059,4001.21,25060,-33.62963252490104,-71.34734715325237,-33.528228354421586,-71.17489680437615
318,912,Nathan Graham,59614866,56,2022-11-30 03:34:34,2022-11-30 03:37:34,2022-11-30 18:29:34,2,813089916,3,29264,5560.16,34824,-34.40727275300064,-70.74761154701486,-34.43936542444991,-70.57315330143803
319,525,Paul Stephens,36678067,11,2022-08-06 11:45:14,2022-08-06 12:00:14,2022-08-07 05:43:14,5,8,2,9234,1754.46,10988,-33.515472223401915,-71.12890661396412,-34.4075902642345,-70.91126545745301
320,166,Bryan Arias,78204967,80,2022-11-01 00:31:12,2022-11-01 00:34:12,2022-11-01 03:17:12,2,68739050,1,2229,423.51,2652,-33.616772457555975,-71.17274556711368,-34.42263875517385,-71.03717696128926
321,93,Michelle Valenzuela,87965165,65,2022-10-03 07:11:59,2022-10-03 07:18:59,2022-10-04 01:24:59,1,292163050,3,8764,1665.16,10429,-34.49602067301382,-70.6335958904006,-34.200207079804564,-71.12066914796048
322,615,Raven Gonzalez,74640687,57,2022-06-10 17:34:51,2022-06-10 17:45:51,2022-06-11 08:57:51,3,1,3,24728,4698.32,29426,-34.2630311374787,-70.58969334443209,-33.99954239477076,-71.05173042673749
323,208,Ashley Dunlap,20065683,32,2022-10-29 23:11:30,2022-10-29 23:12:30,2022-10-30 10:09:30,6,8706,3,20488,3892.7200000000003,24380,-33.92925401031495,-71.39284912586317,-33.94398706158627,-70.82835907558592
324,364,Daniel Mora,67955851,89,2022-01-07 04:11:41,2022-01-07 04:14:41,2022-01-07 05:59:41,2,24182,1,12354,2347.26,14701,-34.379983983349,-70.69776893649065,-34.498225853249885,-70.95260400861122
325,58,Kenneth Reed,47434666,83,2022-06-06 15:23:25,2022-06-06 15:35:25,2022-06-06 20:46:25,6,9,2,2656,504.64,3160,-34.13024940338899,-71.34848209479821,-34.39824189259902,-70.74650746413569
326,714,Anthony Burke,16692231,75,2022-12-06 08:03:35,2022-12-06 08:18:35,2022-12-07 06:38:35,6,63303,3,12621,2397.9900000000002,15018,-34.465394140293576,-70.5880275571329,-34.277117540208486,-70.98313612216961
327,621,Cory Anderson,52312970,22,2022-06-01 14:55:47,2022-06-01 15:09:47,2022-06-02 04:48:47,3,3,2,28456,5406.64,33862,-34.24590358117869,-71.39151416828362,-34.16699539425422,-71.40654347489654
328,555,Kimberly Newman,80914062,38,2022-12-26 10:07:01,2022-12-26 10:13:01,2022-12-26 23:57:01,2,572,1,18133,3445.27,21578,-34.39062218303253,-71.35786971563103,-33.782968194654615,-71.26916964867353
329,889,Beth Young,37284629,64,2022-10-22 01:23:21,2022-10-22 01:33:21,2022-10-22 23:30:21,3,6,2,11855,2252.45,14107,-33.79756773076629,-70.72046525200275,-33.94580658488644,-70.51823812078315
330,446,James Duncan MD,66765741,47,2022-08-30 03:41:23,2022-08-30 03:50:23,2022-08-30 21:00:23,5,2965176,3,25985,4937.15,30922,-34.29721664225353,-71.33833409537023,-33.506898243874126,-71.344105079905
331,279,Crystal Patel,52320255,67,2022-07-27 15:01:42,2022-07-27 15:06:42,2022-07-27 18:38:42,5,44,1,4373,830.87,5203,-33.76183838356437,-71.26005645525683,-33.92943908186895,-71.26938665875151
332,456,Peter Savage,96531848,0,2022-05-23 07:12:06,2022-05-23 07:17:06,2022-05-23 15:42:06,2,399,2,25108,4770.52,29878,-34.2207993988286,-70.61592802725131,-33.97145939815842,-70.9756273876358
333,238,Stephanie Carney,74128457,17,2022-12-20 00:57:17,2022-12-20 01:01:17,2022-12-20 11:48:17,4,312,3,29006,5511.14,34517,-33.8090239101512,-70.82335446205053,-33.88226116479534,-71.49058583878559
334,0,Sara Roy,16360816,9,2022-01-27 04:19:31,2022-01-27 04:25:31,2022-01-27 15:00:31,4,701,3,12390,2354.1,14744,-34.19777763433256,-70.72875246179291,-34.38148444885713,-71.07974719879842
335,763,Mrs. Tami Ellis,52980255,13,2022-05-31 17:17:47,2022-05-31 17:26:47,2022-06-01 08:06:47,4,2464,1,15732,2989.08,18721,-34.29575039622068,-71.31556312028907,-33.98414912165157,-71.45501766711851
336,933,Lisa Wilson,44669166,41,2022-06-08 01:39:31,2022-06-08 01:42:31,2022-06-08 05:41:31,4,5,3,25223,4792.37,30015,-34.32105402050612,-71.00059888327635,-33.56428395096252,-71.05057888995069
337,489,Sherri Campbell,22264418,58,2022-01-11 18:02:29,2022-01-11 18:08:29,2022-01-11 19:48:29,4,2,1,27833,5288.27,33121,-34.055671100689885,-70.86277929787545,-34.40570400294841,-70.72589730881606
338,407,Tamara Ortiz,51947351,72,2022-02-08 02:17:47,2022-02-08 02:31:47,2022-02-08 07:00:47,5,637483576,2,25936,4927.84,30863,-34.46046258791285,-71.03992071371466,-33.99397306888763,-71.42138835335015
339,13,Nicholas Kelly,86309594,75,2022-06-15 04:32:47,2022-06-15 04:39:47,2022-06-15 14:29:47,1,36269,2,4629,879.51,5508,-33.855004687385154,-70.67587267922109,-33.98733010259005,-70.60173153429113
340,332,Tommy James,65319489,67,2022-01-22 07:43:11,2022-01-22 07:58:11,2022-01-22 16:56:11,5,7111,2,3557,675.83,4232,-34.42549886569715,-70.78931047928803,-34.31352291485468,-70.9010687831813
341,782,Aaron Little,68936087,0,2022-02-27 18:10:18,2022-02-27 18:17:18,2022-02-28 00:50:18,1,909339,2,10396,1975.24,12371,-34.02978501828568,-71.06704950385496,-34.27776099088691,-71.16563046840666
342,435,Whitney Mason,77813253,9,2022-08-02 00:47:56,2022-08-02 00:50:56,2022-08-02 15:11:56,2,9,3,21082,4005.58,25087,-34.13610808210426,-70.51354406282505,-33.58732894224869,-71.05900423350631
343,831,Hannah Mcmahon,56558304,82,2022-10-15 06:14:19,2022-10-15 06:20:19,2022-10-15 11:32:19,3,9487707,2,28496,5414.24,33910,-33.59971705369229,-71.13490342586024,-33.5537489723713,-71.13428597583673
344,453,April Daniel,79344846,16,2022-02-03 05:41:05,2022-02-03 05:46:05,2022-02-03 20:29:05,4,2211175,3,11195,2127.05,13322,-34.23939171349198,-70.76945973899346,-34.017390116878396,-70.93010022934862
345,966,Mary Keller,14582436,62,2022-03-05 08:35:01,2022-03-05 08:43:01,2022-03-06 05:29:01,4,938963163,3,15082,2865.58,17947,-33.68925356412843,-70.85676146451584,-33.90030667894445,-71.22042452958821
346,842,Herbert Williams Jr.,18286796,74,2022-02-26 01:10:59,2022-02-26 01:17:59,2022-02-26 18:44:59,1,6,1,25902,4921.38,30823,-34.049424472478634,-70.50172899759708,-33.83513558103826,-70.81515019601915
347,366,Matthew Johnson,34292530,78,2022-08-03 12:27:41,2022-08-03 12:28:41,2022-08-04 11:41:41,3,68932935,2,3150,598.5,3748,-34.339701788942904,-70.70449336953376,-33.77596539992074,-70.91238286182772
348,922,Kristin Powers,24079691,20,2022-02-04 07:19:57,2022-02-04 07:29:57,2022-02-04 14:51:57,5,41902,3,10315,1959.8500000000001,12274,-34.262486119069116,-70.51190198204189,-34.260631761298605,-71.30710286568255
349,677,Megan Pratt,32832998,96,2022-05-02 12:10:47,2022-05-02 12:11:47,2022-05-02 20:57:47,3,34734,2,17675,3358.25,21033,-33.64533308189704,-71.01870258442646,-34.01949317701923,-71.2149179243525
350,350,Kevin Smith,71800412,98,2022-09-11 17:01:08,2022-09-11 17:14:08,2022-09-12 16:56:08,1,9397,2,16111,3061.09,19172,-34.466260203014635,-71.2638937929726,-34.25128714686836,-71.05389745775074
351,309,Jason Tapia,99560293,51,2022-11-16 16:11:13,2022-11-16 16:12:13,2022-11-17 05:52:13,1,34871352,1,8958,1702.02,10660,-34.02034239600661,-70.93763790895339,-34.432033404137655,-71.4053762426008
352,307,Stacy Murphy,27798433,66,2022-11-26 15:03:49,2022-11-26 15:17:49,2022-11-27 04:26:49,6,4618290,2,20115,3821.85,23936,-34.4245119732489,-70.99989743212278,-34.069195803675434,-71.00586482110806
353,328,William Watson,93439039,39,2022-12-04 05:42:29,2022-12-04 05:43:29,2022-12-04 22:03:29,3,58710,3,4875,926.25,5801,-34.08912623280632,-70.94651927935952,-33.536914976897044,-71.47242040386891
354,104,Danny Baird,94188873,49,2022-07-31 17:07:21,2022-07-31 17:17:21,2022-08-01 10:45:21,5,87585125,3,13206,2509.14,15715,-33.95340106229226,-71.36921353689709,-34.05263398863413,-71.39509962177347
355,48,Ronald Riley,68850453,52,2022-10-25 17:09:29,2022-10-25 17:14:29,2022-10-26 02:11:29,6,0,3,2875,546.25,3421,-33.83098692554701,-71.07716134124558,-33.905789740125584,-70.63082766140064
356,369,Michele Bryant,31486626,96,2022-07-07 16:55:48,2022-07-07 17:02:48,2022-07-07 19:18:48,2,58119,2,27647,5252.93,32899,-33.659029732909964,-71.26205677950702,-33.83897476722197,-70.8202201443732
357,64,William Woods,17277567,92,2022-05-08 10:46:48,2022-05-08 10:47:48,2022-05-08 19:26:48,1,79,1,16599,3153.81,19752,-34.237069047835135,-71.46735024627814,-34.24611668749264,-70.9631815488856
358,275,Angela Sanchez,30752723,36,2022-01-11 14:34:03,2022-01-11 14:43:03,2022-01-12 12:03:03,5,25545138,1,13047,2478.93,15525,-33.869800559113955,-70.83740233662989,-33.95785014340174,-70.50211165321632
359,169,Douglas Chen,70949552,70,2022-04-09 02:58:20,2022-04-09 03:10:20,2022-04-09 10:49:20,3,7151,1,24966,4743.54,29709,-34.25055322297286,-70.97970541930628,-33.505145708542095,-71.30926573581202
360,932,Catherine Dunn,94365571,50,2022-05-23 13:29:23,2022-05-23 13:42:23,2022-05-24 03:10:23,2,3,1,27365,5199.35,32564,-34.387688932266926,-70.5634344074042,-34.275694459627594,-70.85497312448254
361,994,Arthur Ray,11418286,39,2022-08-20 01:03:40,2022-08-20 01:11:40,2022-08-20 09:46:40,1,2917,2,13293,2525.67,15818,-33.577393496190915,-71.46191353022564,-34.3706092916269,-70.6004192046198
362,742,Joseph Barr,56417226,0,2022-11-13 22:14:10,2022-11-13 22:16:10,2022-11-14 05:01:10,1,71,2,6976,1325.44,8301,-34.09424190087484,-71.0043115408922,-33.94451058273785,-71.29106408294781
363,432,Jacob Hughes,10009420,48,2022-09-06 17:22:41,2022-09-06 17:32:41,2022-09-06 21:19:41,3,437430717,2,8351,1586.69,9937,-33.550444099111836,-70.54399581667792,-34.1545639875815,-70.93511597191291
364,595,Michaela Acosta,95995472,99,2022-02-02 03:16:01,2022-02-02 03:19:01,2022-02-03 02:47:01,1,92,3,29698,5642.62,35340,-33.88118819083479,-71.30623117576474,-34.373312818360354,-70.62116057726352
365,252,Patrick Gibbs,59200679,20,2022-09-15 06:35:17,2022-09-15 06:50:17,2022-09-15 22:27:17,6,71358969,2,8090,1537.1,9627,-33.62500805142643,-70.89393263615199,-34.42204506591227,-71.29144597003793
366,150,Robert Griffith,72498881,6,2022-08-29 22:43:16,2022-08-29 22:46:16,2022-08-30 16:22:16,1,864319,1,22710,4314.9,27024,-34.064552976390125,-71.49943145783958,-34.144495997704304,-70.91643693223457
367,962,Terry Fisher,78146305,39,2022-11-27 02:55:17,2022-11-27 03:09:17,2022-11-27 20:09:17,5,122978,2,9785,1859.15,11644,-33.61552646253188,-70.59583772381589,-34.29750509289471,-70.58000117537581
368,270,Rodney Buchanan,99478710,74,2022-06-21 07:14:58,2022-06-21 07:27:58,2022-06-22 02:35:58,4,87,1,24617,4677.2300000000005,29294,-34.16627149876934,-70.86367147894477,-33.53954022046145,-70.96212430583235
369,854,Ryan Hernandez,23668356,45,2022-11-05 21:23:10,2022-11-05 21:33:10,2022-11-06 06:19:10,4,9502,1,3931,746.89,4677,-33.67203851302101,-70.99786645913372,-33.73351427398984,-71.40166694841882
370,146,Megan Pittman,66138314,69,2022-09-11 23:56:43,2022-09-12 00:05:43,2022-09-12 00:55:43,1,4,2,28506,5416.14,33922,-33.6134424851444,-70.92242122652237,-33.66432646267794,-71.37443755701374
371,789,Melissa Rios,72392983,12,2022-10-13 14:27:24,2022-10-13 14:31:24,2022-10-14 09:16:24,1,38490281,3,14089,2676.91,16765,-34.36534678359421,-71.31418804569991,-34.0873145046086,-70.61411961544057
372,385,Kathryn Richards,33168934,89,2022-07-13 22:47:28,2022-07-13 22:52:28,2022-07-14 13:34:28,4,71292463,2,10783,2048.77,12831,-34.480127921550114,-70.97486586676733,-33.53424922591321,-70.62148435393179
373,564,Jennifer Jones,30757209,33,2022-04-27 15:51:08,2022-04-27 16:06:08,2022-04-28 08:42:08,1,7424,1,28605,5434.95,34039,-33.99331495286701,-71.22434598532523,-33.958954919269004,-70.67873594589086
374,386,Melissa Chandler,76298817,76,2022-09-28 23:17:54,2022-09-28 23:32:54,2022-09-29 01:56:54,2,7350631,1,24078,4574.82,28652,-33.93979993156341,-70.94082444196164,-33.547059277692476,-71.09273528331397
375,860,Laura Murphy,21137087,57,2022-10-08 12:25:33,2022-10-08 12:35:33,2022-10-08 22:07:33,2,28,2,17955,3411.45,21366,-33.6267589370636,-71.47809966528061,-34.24247197305742,-70.94430796951706
376,710,Monique Ford,50504168,71,2022-10-23 07:02:30,2022-10-23 07:08:30,2022-10-24 01:07:30,1,5,3,29017,5513.2300000000005,34530,-33.91630228499837,-71.18401196332812,-33.62832569632407,-70.7389657488774
377,408,Faith Lewis,97435479,81,2022-12-01 14:18:41,2022-12-01 14:29:41,2022-12-02 10:25:41,2,5,1,16764,3185.16,19949,-33.609428748915164,-71.08462980172094,-34.30577937076495,-70.56058997166353
378,689,David Robinson,34250909,12,2022-06-27 05:10:14,2022-06-27 05:23:14,2022-06-27 07:44:14,1,282003518,2,17508,3326.52,20834,-34.38221350622985,-71.33043813792696,-33.502449699689436,-70.59103492695947
379,271,Ronald Nichols,61930627,16,2022-09-17 05:47:23,2022-09-17 06:00:23,2022-09-17 10:33:23,3,11794276,3,11378,2161.82,13539,-34.34640529489942,-70.72881793378923,-33.77849131185102,-70.9332008273638
380,805,Lauren Martinez,62764770,97,2022-12-16 15:16:45,2022-12-16 15:25:45,2022-12-17 05:51:45,3,8085743,1,29937,5688.03,35625,-34.10206313905099,-71.29474317790576,-33.69046228625755,-70.84904873874238
381,813,Sue Ford,85794669,56,2022-03-12 16:37:44,2022-03-12 16:51:44,2022-03-13 16:44:44,2,11215400,2,12322,2341.18,14663,-33.62096597081264,-71.44683799948676,-34.216589140917634,-70.98407082380321
382,363,Christopher Mason,93139868,49,2022-08-10 18:02:28,2022-08-10 18:07:28,2022-08-11 16:47:28,5,987710658,2,19349,3676.31,23025,-34.0217346880664,-71.09536789359615,-33.910561311124454,-70.51007535788119
383,672,Todd Odom MD,60715657,16,2022-09-06 05:12:41,2022-09-06 05:13:41,2022-09-07 00:02:41,5,768182,3,6865,1304.35,8169,-33.76240726756564,-71.32296038434896,-34.10384378764131,-70.99709717005241
384,144,Melissa Benson,45118615,27,2022-05-29 09:34:07,2022-05-29 09:45:07,2022-05-29 19:08:07,1,1039,3,26022,4944.18,30966,-34.39223895669591,-70.96239402156466,-33.97887364206866,-71.04246844157277
385,478,Jennifer Ortiz,17582538,35,2022-10-22 22:08:36,2022-10-22 22:20:36,2022-10-23 13:28:36,5,85,1,23364,4439.16,27803,-34.18743531429725,-71.23646593504913,-34.4049319048398,-71.06250618599442
386,131,Jennifer Garcia,60520889,91,2022-07-03 15:40:39,2022-07-03 15:41:39,2022-07-04 12:36:39,6,468825058,3,22931,4356.89,27287,-34.10554327551404,-71.38333712923077,-33.84651458034628,-70.9301479568505
387,405,Michael Crawford,26155085,95,2022-07-26 11:15:38,2022-07-26 11:28:38,2022-07-27 08:44:38,1,8,3,26172,4972.68,31144,-34.196686086834184,-71.39077101099576,-34.248278774957,-71.0680608389503
388,1,Joshua Brewer,73489123,55,2022-11-11 06:59:25,2022-11-11 07:02:25,2022-11-12 02:15:25,4,9029690,1,13788,2619.7200000000003,16407,-34.4016436597491,-70.50597557593579,-34.23132952531017,-71.42617088875201
389,989,April Erickson,19452048,82,2022-08-26 22:49:43,2022-08-26 22:56:43,2022-08-27 03:09:43,4,9,2,20371,3870.4900000000002,24241,-33.70797526768817,-71.1890310579895,-34.289589782830085,-70.50273831705776
390,871,David Smith,83268519,66,2022-09-02 16:38:29,2022-09-02 16:47:29,2022-09-03 12:03:29,6,97108294,2,12002,2280.38,14282,-34.131624329674075,-71.07510866890104,-33.50456423504748,-70.99648234850355
391,575,Patrick Castillo,61070863,75,2022-12-06 11:16:06,2022-12-06 11:30:06,2022-12-07 06:07:06,2,689484,2,24372,4630.68,29002,-33.91159164476662,-70.77562853723916,-34.157858950653846,-71.44349645137308
392,213,Bonnie Hudson,50879046,60,2022-03-25 01:31:51,2022-03-25 01:42:51,2022-03-25 02:11:51,4,4988,1,23030,4375.7,27405,-34.40220105229609,-71.30328376427319,-34.36953593425872,-71.32676219083918
393,568,Tim Jones,88093822,57,2022-05-03 21:32:11,2022-05-03 21:36:11,2022-05-04 19:22:11,6,84627680,1,27429,5211.51,32640,-33.86539542702707,-70.80248143079503,-34.023693114892836,-70.98708963057142
394,132,Mia Ramos,55268661,23,2022-01-18 02:12:03,2022-01-18 02:20:03,2022-01-18 17:53:03,5,791744533,2,9567,1817.73,11384,-34.114558371953514,-71.20023515236242,-33.96851897661304,-71.49131402365074
395,937,Lisa Monroe,60308490,40,2022-09-05 18:17:04,2022-09-05 18:26:04,2022-09-05 23:26:04,6,244,3,16119,3062.61,19181,-34.40938760728959,-70.76084114450121,-33.83069901846972,-71.14711696748438
396,899,Alexander Turner,73451381,7,2022-09-25 01:51:29,2022-09-25 01:58:29,2022-09-25 19:03:29,6,1,3,15013,2852.4700000000003,17865,-34.31953453906847,-71.47936895579193,-33.68460462114406,-70.54813490656343
397,284,Kimberly Newton,50172932,60,2022-05-23 20:52:55,2022-05-23 21:03:55,2022-05-23 22:02:55,3,530225,1,1316,250.04,1566,-33.6648156949798,-70.96774899435194,-34.44589181885835,-71.01229312690762
398,970,Mitchell Mercado,42850322,71,2022-02-04 13:20:49,2022-02-04 13:32:49,2022-02-05 04:14:49,6,220984,2,29904,5681.76,35585,-33.76227958512178,-71.13782407464096,-33.74475527281306,-70.8340721152479
399,352,Richard Rhodes,35110866,25,2022-12-31 07:47:52,2022-12-31 07:51:52,2022-12-31 15:29:52,2,16256,1,1390,264.1,1654,-34.295157708612415,-71.06877601366105,-34.230226612261305,-71.23845243188146
400,540,Benjamin West,76949320,56,2022-09-26 21:21:06,2022-09-26 21:25:06,2022-09-26 23:17:06,1,2290,3,1190,226.1,1416,-34.1898361523055,-70.78014634908746,-34.40187981666346,-71.17295272456168
401,118,Jacob Jensen,63696176,60,2022-10-23 22:46:45,2022-10-23 22:49:45,2022-10-24 06:25:45,1,406048306,1,15000,2850.0,17850,-34.484917512360234,-71.29145888276534,-33.73248953574903,-70.95382379097816
402,797,Allison Myers,69117084,12,2022-03-17 21:32:45,2022-03-17 21:44:45,2022-03-18 10:28:45,6,88005104,2,22392,4254.4800000000005,26646,-33.66827212275477,-70.78030864824865,-34.267428981665944,-71.12412737121146
403,223,David Pham,95686222,31,2022-04-01 07:14:25,2022-04-01 07:22:25,2022-04-01 14:35:25,6,440745467,1,2114,401.66,2515,-33.52843296762822,-71.06944054443713,-33.997777838116384,-71.31768981128813
404,644,Shannon Carney,22516340,16,2022-03-05 03:20:45,2022-03-05 03:35:45,2022-03-05 23:04:45,1,9307,1,14728,2798.32,17526,-33.76550891684157,-70.88186150042968,-34.22592116695816,-71.41799100514454
405,979,Jorge Gomez,76908262,71,2022-01-14 12:53:44,2022-01-14 13:07:44,2022-01-15 11:04:44,1,470,1,16207,3079.33,19286,-34.143684427939625,-71.34984855455872,-33.68084349627114,-71.22895613615525
406,679,Bradley Ryan,53915667,78,2022-01-23 07:26:14,2022-01-23 07:28:14,2022-01-23 22:26:14,5,24,2,16285,3094.15,19379,-34.47472370031623,-70.51924867324009,-33.7494611881595,-70.64897488328077
407,143,Ms. Sherri Kelly,34429107,34,2022-07-06 03:24:13,2022-07-06 03:25:13,2022-07-07 03:21:13,5,113112907,2,1491,283.29,1774,-33.965501256469935,-71.22677667332381,-34.30316434338872,-71.25097110438017
408,363,Christopher Mason,93139868,45,2022-02-17 16:57:48,2022-02-17 17:01:48,2022-02-18 02:15:48,2,7097154,2,25579,4860.01,30439,-33.5863161719983,-71.3569322894848,-33.558249665614944,-70.74551794342575
409,942,Kara Brown,73377891,30,2022-06-05 00:15:12,2022-06-05 00:26:12,2022-06-05 16:41:12,3,58941,2,3893,739.67,4632,-33.86712668779352,-70.98299770040535,-33.61624463326494,-70.76636197624585
410,993,Erika Horton,70771262,48,2022-07-24 17:56:01,2022-07-24 18:05:01,2022-07-25 07:30:01,2,56,1,18540,3522.6,22062,-34.45388462821376,-71.35980478834144,-33.98893720898942,-70.67215233332404
411,564,Jennifer Jones,30757209,47,2022-01-09 10:15:10,2022-01-09 10:26:10,2022-01-09 18:28:10,3,719368828,1,2804,532.76,3336,-33.51243256550348,-70.86632457510329,-33.84023407553189,-71.20521685933046
412,258,Brian Little,30811174,71,2022-12-15 11:53:54,2022-12-15 11:57:54,2022-12-15 19:40:54,5,48878,3,18700,3553.0,22253,-34.15823533789452,-71.01842722493345,-34.26831039584567,-71.21681398564102
413,691,Daniel Martin,39099502,11,2022-10-31 01:46:20,2022-10-31 01:54:20,2022-11-01 01:05:20,6,9340518,1,20968,3983.92,24951,-34.17677072582379,-71.37676612182813,-33.96479446043437,-70.8445897209137
414,570,Danielle Garcia,37001284,18,2022-02-15 19:15:32,2022-02-15 19:22:32,2022-02-16 02:14:32,3,6,2,5491,1043.29,6534,-33.86610403480074,-70.78652028270298,-34.29429749778606,-71.3698578810078
415,22,Maureen Sanchez,39962692,37,2022-12-12 04:25:50,2022-12-12 04:37:50,2022-12-12 22:09:50,1,31635853,1,14003,2660.57,16663,-34.43334211330743,-70.96021518212098,-34.25542437666576,-71.1583948620102
416,764,Carla Ramirez,67944324,16,2022-12-13 21:53:27,2022-12-13 21:57:27,2022-12-14 03:01:27,3,837,1,14654,2784.26,17438,-33.62351242299258,-71.34468269962423,-34.230173216051234,-70.96407444239709
417,125,John Meyer,11433618,95,2022-06-03 13:19:43,2022-06-03 13:30:43,2022-06-03 23:32:43,5,385402937,3,20434,3882.46,24316,-34.28857543091286,-70.95476726311496,-34.30306890183816,-71.03647175655826
418,487,Tammy Mclaughlin,73482830,28,2022-04-01 18:54:56,2022-04-01 19:02:56,2022-04-02 14:15:56,4,155615322,2,24596,4673.24,29269,-33.771274154052655,-70.91020555244239,-34.02217396433448,-71.1647712229786
419,801,Savannah Allen,67152932,7,2022-12-18 08:13:10,2022-12-18 08:17:10,2022-12-19 00:46:10,5,667400798,2,23168,4401.92,27569,-34.10238431346889,-70.81130616451075,-34.326989836482454,-71.4605874507195
420,110,Travis Smith,72418655,96,2022-12-21 17:38:24,2022-12-21 17:49:24,2022-12-22 11:05:24,1,6,2,29578,5619.82,35197,-34.34796897399179,-71.26182300487386,-33.72687003516757,-71.45914193033909
421,892,Troy Kennedy,55574561,7,2022-01-19 08:25:39,2022-01-19 08:35:39,2022-01-19 14:41:39,3,30787,3,25288,4804.72,30092,-34.28087165665936,-70.55023153426086,-33.861561580210136,-70.62657243018911
422,9,Robert Scott,82470075,27,2022-05-19 21:06:17,2022-05-19 21:11:17,2022-05-20 18:13:17,1,985,3,8139,1546.41,9685,-34.2839391510745,-71.47757715462828,-33.69451646818656,-70.74975554063323
423,130,Marcus Watkins DVM,48570606,11,2022-12-10 23:40:23,2022-12-10 23:41:23,2022-12-11 06:44:23,1,8989,1,18103,3439.57,21542,-33.550245097310444,-70.5433032530777,-33.53008139415353,-70.8237260456591
424,822,Brandy Ellis,27340331,37,2022-12-17 09:19:49,2022-12-17 09:33:49,2022-12-17 16:34:49,3,463,3,14061,2671.59,16732,-34.01656387539857,-71.02122080021716,-33.82700882136256,-71.13109694794836
425,961,Brandi Patterson,56596931,46,2022-06-03 06:32:44,2022-06-03 06:34:44,2022-06-03 21:47:44,3,35,2,13862,2633.78,16495,-33.86102908685587,-70.84677507988634,-33.6942028409442,-71.0783974242144
426,346,Matthew Hall,20245174,36,2022-11-27 08:21:30,2022-11-27 08:28:30,2022-11-27 16:06:30,4,498,1,28263,5369.97,33632,-34.24697697744083,-71.10158166895239,-34.398039278193,-70.6070096988387
427,623,Jesse Simpson,94343184,83,2022-02-15 01:26:04,2022-02-15 01:39:04,2022-02-15 05:51:04,6,3,1,23721,4506.99,28227,-33.600044376052125,-71.2445312776715,-34.18064377844833,-71.48913063192016
428,53,Tiffany Harmon,32221566,1,2022-03-26 13:20:11,2022-03-26 13:28:11,2022-03-27 07:54:11,4,164854,3,15683,2979.77,18662,-34.210957950161706,-70.90072717864997,-33.80585602267123,-71.08278172369059
429,719,Mary Cameron,76948945,16,2022-11-19 01:00:56,2022-11-19 01:14:56,2022-11-19 20:44:56,1,5840,1,17240,3275.6,20515,-34.28385118859589,-70.52208379446465,-34.241655123199244,-71.11572223913603
430,701,Cynthia Romero,36315094,13,2022-07-29 23:57:45,2022-07-30 00:02:45,2022-07-30 08:54:45,1,227445416,2,5118,972.42,6090,-34.09876071914488,-71.02411735369392,-34.14624654474241,-71.10028046627005
431,328,William Watson,93439039,79,2022-12-27 05:07:49,2022-12-27 05:16:49,2022-12-28 05:15:49,1,99395,3,1858,353.02,2211,-33.72913717368463,-71.09501197948897,-34.41010786608774,-70.64365540859559
432,909,Gregory Stanley,63331115,94,2022-07-20 12:42:02,2022-07-20 12:47:02,2022-07-21 10:00:02,3,8185,1,2596,493.24,3089,-33.846311346454826,-71.28576476782887,-33.97001425383462,-70.50993628800046
433,823,Lauren Tucker,24703365,96,2022-12-01 11:38:55,2022-12-01 11:43:55,2022-12-02 11:13:55,3,2,2,27902,5301.38,33203,-34.03223925403045,-70.7554737111522,-33.69157134344625,-70.9616310136002
434,604,Ralph Escobar,85157066,80,2022-01-30 11:23:07,2022-01-30 11:30:07,2022-01-30 16:38:07,5,7804,2,20808,3953.52,24761,-33.8483738495245,-70.67679536780633,-33.7574905104209,-71.3100474856979
435,297,Mr. Donald Hall,15373731,22,2022-03-13 20:38:32,2022-03-13 20:43:32,2022-03-13 22:47:32,4,210,3,7261,1379.59,8640,-33.56856338435721,-70.93606129585145,-33.64700206252378,-70.9485167227172
436,67,Aaron Young,50702200,85,2022-05-17 09:28:15,2022-05-17 09:38:15,2022-05-18 05:49:15,5,274783,2,17217,3271.23,20488,-33.66000302450298,-71.45093073677504,-33.903387669063044,-70.55988578193322
437,830,Mr. Mark Singleton MD,64901091,45,2022-12-04 11:51:26,2022-12-04 11:56:26,2022-12-04 19:28:26,4,740814,2,24106,4580.14,28686,-33.7708562645842,-70.51193918957237,-34.35009122849751,-71.3062076280182
438,124,Mrs. Jill Davis,54091779,66,2022-04-01 10:34:00,2022-04-01 10:46:00,2022-04-01 18:10:00,2,293503271,3,1802,342.38,2144,-34.07433674155134,-70.51621552290355,-34.38905590413449,-71.49182458288432
439,855,Mark Orr,58377953,25,2022-02-13 20:10:46,2022-02-13 20:22:46,2022-02-13 22:00:46,4,773,3,26088,4956.72,31044,-34.3193191015045,-70.70945459743538,-34.438272462252954,-71.36539737716959
440,114,Robert Murphy,75044360,86,2022-06-04 06:12:30,2022-06-04 06:19:30,2022-06-04 08:26:30,5,94670,1,10537,2002.03,12539,-33.746631145880094,-71.41871542313683,-33.80435393621132,-71.32392295578609
441,766,Amber Robertson,68471428,49,2022-01-02 14:48:26,2022-01-02 14:51:26,2022-01-02 16:49:26,3,1897792,3,20442,3883.98,24325,-34.31032058510942,-70.82879601776892,-34.37258593193496,-71.08314745299693
442,718,James Hurley,49065320,33,2022-05-02 09:44:26,2022-05-02 09:56:26,2022-05-03 06:55:26,4,65272834,3,1353,257.07,1610,-34.32151320784202,-70.89159599989728,-33.619234934459556,-70.8879686602479
443,929,Olivia Bell,23322079,21,2022-08-17 20:00:01,2022-08-17 20:14:01,2022-08-18 12:02:01,3,4,3,6915,1313.85,8228,-33.925939774923435,-71.24376240375082,-34.226298047680544,-70.89680493119926
444,111,Jason Long MD,61192755,11,2022-05-08 23:34:08,2022-05-08 23:42:08,2022-05-09 05:15:08,5,1,2,7582,1440.58,9022,-34.14376764679648,-71.13500167994226,-33.993272635875904,-70.87612861068337
445,137,Laura Mccoy,18464799,79,2022-05-28 12:56:30,2022-05-28 12:57:30,2022-05-28 19:02:30,6,1288,2,8330,1582.7,9912,-34.09901953241108,-71.06078713835214,-34.39886691190991,-71.49991519986338
446,557,Stephanie Harmon,75209212,26,2022-04-27 19:40:39,2022-04-27 19:50:39,2022-04-27 20:13:39,4,33154,3,12835,2438.65,15273,-33.846996942035545,-70.74532003088181,-33.890499643538284,-71.37540230702784
447,215,Marcus Hartman,59399911,85,2022-03-14 00:23:58,2022-03-14 00:31:58,2022-03-14 17:21:58,5,290309,2,29853,5672.07,35525,-33.549001774949474,-71.40799700419493,-33.81910399187526,-71.30813941694166
448,587,Frederick Aguilar,25524890,47,2022-06-03 07:19:17,2022-06-03 07:32:17,2022-06-04 02:24:17,2,23,2,24115,4581.85,28696,-33.98819419700574,-71.05376005236403,-33.682120405543124,-70.80858793447544
449,636,Jeffrey Johnson,27485136,25,2022-04-24 14:47:02,2022-04-24 15:00:02,2022-04-25 06:31:02,5,174600,3,12172,2312.68,14484,-34.3392465301619,-71.48697511067317,-33.94068581824963,-70.85547372501784
450,563,Brian Dominguez,57792377,12,2022-04-07 18:28:56,2022-04-07 18:32:56,2022-04-07 20:06:56,4,247,3,6177,1173.63,7350,-34.256492680108124,-70.75470215891546,-33.85225546582874,-71.40986017750878
451,469,Matthew Martinez,95821832,38,2022-12-29 03:17:21,2022-12-29 03:29:21,2022-12-29 04:54:21,2,5,1,23897,4540.43,28437,-34.227900533061586,-70.8065001107874,-33.856077465063926,-71.19617083342638
452,677,Megan Pratt,32832998,21,2022-12-01 13:05:52,2022-12-01 13:18:52,2022-12-01 22:57:52,6,5,3,9036,1716.84,10752,-34.4283382463034,-71.08272933835892,-34.49585583734232,-70.73499730339569
453,767,Tara Martin,18598173,72,2022-12-30 21:01:18,2022-12-30 21:10:18,2022-12-31 19:12:18,6,92042902,3,25191,4786.29,29977,-33.5147370000522,-70.59770715412196,-34.09213400339945,-71.43228783132201
454,182,Leah Mitchell,85808889,34,2022-09-18 11:58:48,2022-09-18 12:00:48,2022-09-18 14:36:48,4,5828618,1,15247,2896.93,18143,-34.07999776963096,-71.18184710949295,-33.72080153422674,-71.32825528554622
455,316,Christian Murray,76639816,20,2022-10-11 07:45:44,2022-10-11 07:55:44,2022-10-11 22:00:44,2,72185601,2,11247,2136.93,13383,-34.47860895122912,-71.00673848440165,-34.412421396371904,-70.92518767472691
456,122,Jason Taylor,92417355,5,2022-12-09 22:23:43,2022-12-09 22:33:43,2022-12-10 04:41:43,3,35705,2,11370,2160.3,13530,-34.11581915044521,-70.84096291526045,-33.746294468790396,-70.67458811614368
457,149,Erin Lewis,48057270,9,2022-11-22 11:27:56,2022-11-22 11:28:56,2022-11-22 21:23:56,6,15684,1,23106,4390.14,27496,-34.41220526691254,-71.07300217696101,-33.575771192156225,-71.0954306274033
458,913,Heather Edwards,73224730,18,2022-10-10 06:57:32,2022-10-10 07:03:32,2022-10-11 01:39:32,3,6974156,1,13862,2633.78,16495,-33.74109355522053,-70.62479383938988,-34.085602963486075,-71.38449332784606
459,668,Catherine Ross,66344539,43,2022-03-12 13:10:35,2022-03-12 13:21:35,2022-03-13 11:08:35,4,70970,2,19274,3662.06,22936,-33.72998829953955,-70.89030516560467,-33.7609920652261,-70.8617703455062
460,393,Anthony Jacobson,83833621,10,2022-12-04 23:33:01,2022-12-04 23:47:01,2022-12-05 23:26:01,3,672502,1,21747,4131.93,25878,-33.607472683094045,-70.66008993952823,-33.92520402037718,-71.2082139912148
461,845,Lynn Robinson,66561250,25,2022-10-13 01:34:53,2022-10-13 01:41:53,2022-10-13 05:19:53,5,4089,1,25640,4871.6,30511,-34.29536082446516,-70.83753002576347,-34.046367657937786,-70.69959849377636
462,695,Tammy Zimmerman,22544377,64,2022-10-17 13:41:54,2022-10-17 13:44:54,2022-10-18 10:26:54,5,150,2,20023,3804.37,23827,-33.70567546861672,-71.41211973980215,-33.67674031771232,-70.58282284872814
463,35,Rick Callahan,64910492,5,2022-08-14 09:02:25,2022-08-14 09:08:25,2022-08-14 22:35:25,1,9,2,7874,1496.06,9370,-33.925988526232906,-71.4642536565302,-33.50390639637265,-70.54177993049547
464,538,Blake Bryant,63982517,37,2022-07-12 14:48:22,2022-07-12 14:50:22,2022-07-12 16:35:22,1,4,1,20864,3964.16,24828,-33.816652877454324,-71.26175741909415,-34.115210015138075,-70.51591804632334
465,434,Ian Pitts,42169848,91,2022-02-28 04:53:16,2022-02-28 05:08:16,2022-02-28 15:24:16,6,477407,3,23001,4370.19,27371,-34.24256847037039,-71.00121920044167,-34.328831958431316,-70.75141307668538
466,648,Michael Jenkins,29824749,90,2022-07-01 14:53:52,2022-07-01 15:01:52,2022-07-02 12:39:52,6,9882,1,11470,2179.3,13649,-34.29652125568852,-70.7554362813663,-34.49923332429264,-70.9999696180138
467,480,Thomas Sanders,42945194,21,2022-11-29 11:31:11,2022-11-29 11:43:11,2022-11-30 07:03:11,4,30,1,21174,4023.06,25197,-34.369878656766836,-70.55722874599857,-33.93704340665913,-70.83906194141689
468,974,Rebecca Kelley,30934370,37,2022-01-17 09:25:15,2022-01-17 09:40:15,2022-01-17 18:13:15,1,7529,1,8275,1572.25,9847,-34.3376766968963,-70.52322825518652,-34.35949059615042,-71.18057017693724
469,443,Elizabeth Hendricks,21972065,94,2022-12-16 22:36:43,2022-12-16 22:45:43,2022-12-17 00:52:43,2,86764444,2,8030,1525.7,9555,-33.544377609805366,-70.60191913998896,-33.58675954538013,-71.02974551168174
470,177,Briana Burns,44156973,22,2022-05-16 06:56:47,2022-05-16 07:00:47,2022-05-17 06:15:47,2,602,3,16361,3108.59,19469,-34.44059282309782,-70.53422580573208,-33.95091285803843,-71.11280012195667
471,151,Jonathan King,55212551,76,2022-05-11 12:31:19,2022-05-11 12:35:19,2022-05-11 13:18:19,5,1237,1,23526,4469.94,27995,-34.244332095934126,-71.06962300866304,-33.66672021744285,-70.5814644441733
472,425,Karen Brown,84700759,18,2022-10-13 00:39:03,2022-10-13 00:46:03,2022-10-13 18:15:03,2,1905307,3,26358,5008.02,31366,-33.99512658038066,-71.37054277873389,-34.213710788844715,-70.8067947456542
473,396,John Ayers,63607965,82,2022-12-02 04:33:32,2022-12-02 04:38:32,2022-12-03 01:14:32,1,341832365,3,17156,3259.64,20415,-33.73475174438489,-70.59021031245643,-34.48330508535366,-71.03842575510497
474,420,Sydney Benton,92446898,75,2022-12-07 04:12:54,2022-12-07 04:26:54,2022-12-07 10:48:54,4,113902255,1,20318,3860.42,24178,-34.41409640023951,-70.74920737468818,-34.30593714480371,-70.82963926916841
475,395,Angela Diaz,66051255,95,2022-11-09 09:57:07,2022-11-09 10:08:07,2022-11-09 10:41:07,4,5,3,24456,4646.64,29102,-33.7852157362823,-70.5464964312849,-34.073194192444404,-71.21016647893845
476,80,Jessica Ward,22686722,45,2022-03-31 01:22:47,2022-03-31 01:27:47,2022-03-31 01:46:47,4,5,1,22065,4192.35,26257,-34.30616261657749,-71.01940573227336,-34.043582385232334,-70.72320975061912
477,337,Erica Simon,25149669,22,2022-10-14 11:18:02,2022-10-14 11:20:02,2022-10-14 19:14:02,2,41,2,8451,1605.69,10056,-33.85353001244154,-71.35977074389405,-34.471041872471844,-70.70288088008503
478,359,Christy Lee,96761391,33,2022-07-05 20:25:25,2022-07-05 20:38:25,2022-07-06 06:43:25,3,2338120,2,25352,4816.88,30168,-34.09396971117568,-71.02968766364732,-33.92194083245916,-71.4269873225477
479,154,Eric Walker Jr.,78533318,5,2022-07-29 11:56:59,2022-07-29 12:08:59,2022-07-30 08:18:59,6,122116,1,21150,4018.5,25168,-33.7854714042353,-70.5567864700345,-34.11423603817567,-70.82839412514076
480,20,Angela Hernandez,81504719,92,2022-06-13 10:22:14,2022-06-13 10:26:14,2022-06-13 22:00:14,5,9433,2,23500,4465.0,27965,-33.79331737377098,-71.04174152205748,-34.48054551284621,-71.19188153232624
481,580,Joshua Peters,30413515,52,2022-05-13 07:36:45,2022-05-13 07:44:45,2022-05-13 17:47:45,2,301,2,15442,2933.98,18375,-33.516482258900275,-70.63366129389033,-33.781141965153445,-71.28262024519104
482,967,Amanda Graham,91203375,80,2022-11-28 23:21:05,2022-11-28 23:34:05,2022-11-29 19:34:05,6,2943,2,13127,2494.13,15621,-34.0203252199257,-71.36801013425448,-33.68120987525561,-70.50696508063967
483,77,Gary Simpson,41895754,96,2022-01-29 05:02:22,2022-01-29 05:05:22,2022-01-29 11:46:22,3,7251,2,13465,2558.35,16023,-34.37953279917927,-71.40395448253479,-34.41815149772473,-71.09999333908198
484,943,Eric Meyer,21986655,28,2022-06-08 14:37:19,2022-06-08 14:46:19,2022-06-08 16:30:19,3,7,2,19075,3624.25,22699,-33.806569085826936,-70.70014888544017,-34.09662022641652,-71.13340183290258
485,439,Kenneth Wood,57210295,29,2022-01-19 17:35:04,2022-01-19 17:46:04,2022-01-19 22:51:04,4,2808691,3,10317,1960.23,12277,-33.621371304698265,-71.17897614913996,-34.07273607934738,-71.03578634022334
486,620,Frank Davis,29951383,92,2022-01-15 03:01:02,2022-01-15 03:09:02,2022-01-15 05:45:02,6,480,3,2947,559.93,3506,-34.01420258334141,-70.89281446802069,-33.61554579915614,-71.08375746755013
487,821,Jonathan Baxter,22772833,86,2022-07-29 07:48:30,2022-07-29 07:55:30,2022-07-29 23:10:30,4,662372,3,17704,3363.76,21067,-34.02445096070855,-71.41579286509788,-34.08257729314221,-71.27792863531896
488,67,Aaron Young,50702200,82,2022-10-13 14:09:32,2022-10-13 14:10:32,2022-10-13 17:16:32,2,3752997,3,16545,3143.55,19688,-33.56928317522338,-70.50369324731531,-33.6599706035349,-71.19166381737926
489,787,Lisa Jackson,86364655,57,2022-11-12 03:36:33,2022-11-12 03:39:33,2022-11-12 06:53:33,6,243203470,3,9630,1829.7,11459,-34.2717902979441,-70.91140912951863,-33.69595458850025,-70.71291453555204
490,133,Joshua George,24266222,55,2022-09-12 19:02:30,2022-09-12 19:07:30,2022-09-13 15:10:30,2,9400268,3,24413,4638.47,29051,-34.0870473990884,-70.66024720702278,-34.235421973794644,-70.66549595414422
491,302,Regina Young,51148890,76,2022-03-10 16:29:04,2022-03-10 16:41:04,2022-03-11 10:56:04,5,5774,3,4950,940.5,5890,-34.45971520653281,-71.06283336203171,-33.87863650583184,-71.02495569115085
492,173,Linda Valdez,83231058,75,2022-11-10 05:00:42,2022-11-10 05:04:42,2022-11-10 12:48:42,3,789550,2,8508,1616.52,10124,-34.110814042831734,-70.98119592988233,-33.72543477041626,-70.75992588379358
493,512,Jenna Williams,30854961,85,2022-08-10 12:46:04,2022-08-10 13:00:04,2022-08-11 09:04:04,5,823256560,1,13874,2636.06,16510,-34.115541728757385,-71.00844083053771,-33.92066595249132,-71.2166516944417
494,666,Scott Turner,50995338,56,2022-01-17 05:09:41,2022-01-17 05:22:41,2022-01-17 20:02:41,1,9269565,2,22132,4205.08,26337,-33.540989552084696,-71.13478332539064,-34.02140165303497,-70.9790936080262
495,150,Robert Griffith,72498881,86,2022-09-05 13:59:17,2022-09-05 14:08:17,2022-09-06 03:11:17,5,3,2,27113,5151.47,32264,-33.72160213483124,-71.18408937614042,-34.28975357546269,-71.13591588794243
496,964,William Sanchez,13159899,13,2022-12-17 08:23:45,2022-12-17 08:25:45,2022-12-18 05:34:45,5,22030786,2,22752,4322.88,27074,-33.739646156419354,-71.1999288061583,-33.77996687084726,-71.07299667279788
497,474,Ashley Robinson,96914525,12,2022-07-20 08:49:35,2022-07-20 09:02:35,2022-07-21 01:01:35,3,321488,1,4634,880.46,5514,-34.03615849991416,-70.89475844909626,-33.56223887111425,-70.60164622539446
498,424,David Knight,26206335,98,2022-02-25 00:26:54,2022-02-25 00:36:54,2022-02-25 14:03:54,5,874169,1,16645,3162.55,19807,-33.5498397701871,-71.24799279081151,-33.68580186613538,-70.95988649738985
